cave_id,name,inventory_number,latitude,longitude,pgi_id,pgi_name,pgi_latitude,pgi_longitude,lat_diff,lon_diff,distance_m,lat_abs_diff,lon_abs_diff
390,Grota w Mechowej,NP-01,54.71351388931275,18.28466666671965,390,Grota w Mechowej,54.713513931979925,18.284666701740885,-4.2667174682264886e-08,-3.50212339128575e-08,0.005250665332338022,4.2667174682264886e-08,3.50212339128575e-08
391,Schronisko w Połchowie,NP-02,54.64328333324856,18.373113888634578,391,Schronisko w Połchowie,54.643282957669186,18.37311275444953,3.755793755999548e-07,1.134185048101699e-06,0.08408330777302453,3.755793755999548e-07,1.134185048101699e-06
392,Jaskinia w Kępie Redłowskiej,NP-03,54.48936666647593,18.56513888888889,392,Jaskinia w Kępie Redłowskiej,54.48936761784068,18.565139797361617,-9.513647469816533e-07,-9.084727281560845e-07,0.12097025085621288,9.513647469816533e-07,9.084727281560845e-07
393,Jaskinia Śpiącego Szweda,NP-04,54.466836111115086,18.561849999957616,393,Jaskinia Śpiącego Szweda,54.466835781451906,18.56185052575197,3.2966318030958064e-07,-5.257943556102873e-07,0.04998280125608299,3.2966318030958064e-07,5.257943556102873e-07
394,Czarcie Okna,NP-05,53.057925000190735,15.17933888859219,394,Czarcie Okna,53.05792607880321,15.179339815704402,-1.0786124775563621e-06,-9.271122127785247e-07,0.1349943996968547,1.0786124775563621e-06,9.271122127785247e-07
395,Nisze nad Czarcimi Oknami,NP-06,53.05815277788374,15.177849999533759,395,Nisze nad Czarcimi Oknami,53.05815297357417,15.177849309376326,-1.9569042564171468e-07,6.901574334250427e-07,0.050997560512013144,1.9569042564171468e-07,6.901574334250427e-07
396,Grota Mirachowska I,NP-07,54.38305277824402,18.003872222105663,396,Grota Mirachowska I,54.38305279219769,18.003872268662736,-1.3953666666566278e-08,-4.655707286360666e-08,0.0033906741894852116,1.3953666666566278e-08,4.655707286360666e-08
397,Grota Mirachowska II,NP-08,54.41086111068726,17.994583333333335,397,Grota Mirachowska II,54.410861111133705,17.994583332670608,-4.4644821173278615e-10,6.627267623571242e-10,6.56021246449083e-05,4.4644821173278615e-10,6.627267623571242e-10
398,Jaskinia Bajka I,NP-09,53.219666666719654,18.176472222010297,398,Jaskinia Bajka I,53.219666649476686,18.1764721741836,1.7242967942365794e-08,4.782669549285856e-08,0.003716889363257566,1.7242967942365794e-08,4.782669549285856e-08
399,Jaskinia Bajka II,NP-10,53.219736111164096,18.176444444656372,399,Jaskinia Bajka II,53.219736146501944,18.176444472938066,-3.533784820319852e-08,-2.82816934316088e-08,0.004357238399691588,3.533784820319852e-08,2.82816934316088e-08
401,Jaskinia Klonowa,NP-12,53.5124527782864,18.793788888719348,401,Jaskinia Klonowa,53.512452077976285,18.79378770180682,7.003101174518633e-07,1.1869125273733516e-06,0.11055824664061212,7.003101174518633e-07,1.1869125273733516e-06
402,Jaskinia pod Wierzbą,NP-13,53.51241666687859,18.791905555725098,402,Jaskinia pod Wierzbą,53.51241728918487,18.79190484662688,-6.223062740673413e-07,7.090982165891546e-07,0.08358618304371225,6.223062740673413e-07,7.090982165891546e-07
403,Płaska Nisza,NP-14,53.54593333350287,18.843347222010294,403,Płaska Nisza,53.54593417955028,18.84334855309595,-8.460474063554102e-07,-1.3310856559201056e-06,0.12878092220856913,8.460474063554102e-07,1.3310856559201056e-06
404,Ciasna Dziura,NP-15,53.51004166709052,18.951291666693155,404,Ciasna Dziura,53.51004166452296,18.95129171156936,2.5675603865238372e-09,-4.487620586246521e-08,0.002981168710074172,2.5675603865238372e-09,4.487620586246521e-08
406,Szczelina w Kurowie,NP-17,53.104916666878594,22.789569444656372,406,Szczelina w Kurowie,53.1049172645228,22.789570411362423,-5.976442025712458e-07,-9.667060503204539e-07,0.09263280929091185,5.976442025712458e-07,9.667060503204539e-07
407,Dziura w Maruszynie,P-01.02,49.42285277790493,19.93498333334923,407,Dziura w Maruszynie,49.42285277994153,19.934983359350277,-2.0366002217997448e-09,-2.6001046649071213e-08,0.0018942183884918969,2.0366002217997448e-09,2.6001046649071213e-08
408,Schronisko w Szaflarach,P-01.03,49.43833333333333,20.014722222222222,408,Schronisko w Szaflarach,49.43833329290061,20.014722247031298,4.043272383569274e-08,-2.4809075682696857e-08,0.0048405730125155805,4.043272383569274e-08,2.4809075682696857e-08
409,Jaskinia w Szaflarach,P-01.04,49.43833333333333,20.01527777777778,409,Jaskinia w Szaflarach,49.43833336588797,20.015277750237555,-3.255463809637149e-08,2.7540224323274742e-08,0.004131483207716483,3.255463809637149e-08,2.7540224323274742e-08
410,Jaskinia w Obłazowej,P-02.01,49.42861111111111,20.12587222205268,410,Jaskinia w Obłazowej,49.42861111180434,20.125872272387387,-6.932268092896265e-10,-5.0334705292698345e-08,0.0036410532361193285,6.932268092896265e-10,5.0334705292698345e-08
411,Schronisko w Obłazowej I,P-02.02,49.42866666687859,20.126602777904935,411,Schronisko w Obłazowej I,49.42866671228298,20.126602760309876,-4.540439135780616e-08,1.7595059631503318e-08,0.0052066274945132525,4.540439135780616e-08,1.7595059631503318e-08
412,Schronisko w Obłazowej II,P-02.03,49.42874444431729,20.126955555809868,412,Schronisko w Obłazowej II,49.428744436189504,20.12695549133848,8.127784667522064e-09,6.447138645171435e-08,0.004749380774691331,8.127784667522064e-09,6.447138645171435e-08
413,Schronisko w Kramnicy,P-02.05,49.428888888888885,20.1325,413,Schronisko w Kramnicy,49.428888849635506,20.132499952237502,3.925337921373284e-08,4.776249795668264e-08,0.005566213602126431,3.925337921373284e-08,4.776249795668264e-08
414,Schronisko Wodne pod Kramnicą,P-02.06,49.42927777820163,20.13016666624281,414,Schronisko Wodne pod Kramnicą,49.4292778032072,20.13016672452405,-2.5005569170843955e-08,-5.8281237613755366e-08,0.0050493894296797315,2.5005569170843955e-08,5.8281237613755366e-08
415,Schronisko w Lorencowych Skałkach,P-02.07,49.42221388869815,20.16302777820163,415,Schronisko w Lorencowych Skałkach,49.422213936980455,20.163027719567015,-4.8282302600455296e-08,5.8634615385244615e-08,0.0068417765902166775,4.8282302600455296e-08,5.8634615385244615e-08
416,Schronisko w Borsukowej Skale I,P-02.08,49.41986666679382,20.16991388877233,416,Schronisko w Borsukowej Skale I,49.41986663701572,20.16991387110056,2.977809998583325e-08,1.767176982525598e-08,0.0035493413649086984,2.977809998583325e-08,1.767176982525598e-08
417,Schronisko w Borsukowej Skale II,P-02.09,49.419883333312136,20.170033333301546,417,Schronisko w Borsukowej Skale II,49.419883334445515,20.170033299866898,-1.1333796123835782e-09,3.3434648827324054e-08,0.0024217262019243686,1.1333796123835782e-09,3.3434648827324054e-08
418,Schronisko w Borsukowej Skale III,P-02.10,49.41990000009537,20.170169444349078,418,Schronisko w Borsukowej Skale III,49.41990004280406,20.170169418257032,-4.270869169431535e-08,2.609204585724001e-08,0.00511027512663558,4.270869169431535e-08,2.609204585724001e-08
420,Schronisko w Dziurowej Skale,P-02.13,49.421069444550405,20.189952777756584,420,Schronisko w Dziurowej Skale,49.42106942026296,20.18995271442091,2.4287444944093295e-08,6.33356727064438e-08,0.005317956632325453,2.4287444944093295e-08,6.33356727064438e-08
421,Jaskinia w Dziurowej Skale,P-02.14,49.42111111111111,20.19043611102634,421,Jaskinia w Dziurowej Skale,49.42111114411738,20.190436069906152,-3.3006273270075326e-08,4.112018814339535e-08,0.004724010049779947,3.3006273270075326e-08,4.112018814339535e-08
422,Schronisko w Żorze,P-03.01,49.41833333333333,20.2275,422,Schronisko w Żorze,49.418333375559975,20.22750004137284,-4.222664529152098e-08,-4.137283937666325e-08,0.005568047038499537,4.222664529152098e-08,4.137283937666325e-08
423,Prosta Dziura,P-03.02,49.416666666666664,20.238611111111112,423,Prosta Dziura,49.41666668547765,20.238611180336175,-1.8810986546213826e-08,-6.922506301521025e-08,0.005426913913151427,1.8810986546213826e-08,6.922506301521025e-08
424,Krzywa Dziura,P-03.03,49.41638888888889,20.240555555555556,424,Krzywa Dziura,49.41638885635004,20.24055559859764,3.25388498367829e-08,-4.3042085451361345e-08,0.004773425131703524,3.25388498367829e-08,4.3042085451361345e-08
425,Schronisko przy Zielonej Drodze,P-03.04,49.420833333333334,20.244722222222222,425,Schronisko przy Zielonej Drodze,49.42083334901641,20.244722273845877,-1.568307794741486e-08,-5.162365468436292e-08,0.004121191300266742,1.568307794741486e-08,5.162365468436292e-08
428,Schronisko Czorsztyńskie,P-04.01Ex,49.43476666662428,20.311336111492583,428,Schronisko Czorsztyńskie,49.43476665342603,20.3113361794882,1.319824605161557e-08,-6.799561802495191e-08,0.005131216071461725,1.319824605161557e-08,6.799561802495191e-08
470,Jaskinia w Starym Puszczykowie,NP-1Ex,52.27875,16.841433333290947,470,Jaskinia w Starym Puszczykowie,52.27874944375335,16.841434398152405,5.562466540709465e-07,-1.0648614576780346e-06,0.09525634135978935,5.562466540709465e-07,1.0648614576780346e-06
471,Nisze w Bielawach,NP-2Ex,52.81626666704813,18.00916388935513,471,Nisze w Bielawach,52.81626628812778,18.009163492286866,3.7892035464892615e-07,3.9706826271412865e-07,0.04987309322721869,3.7892035464892615e-07,3.9706826271412865e-07
472,Komora Kryształowa,NP-3Ex,52.78364999999602,18.25899166636997,472,Komora Kryształowa,52.78365137002677,18.258992734534793,-1.3700307448516469e-06,-1.0681648241472885e-06,0.16842894747076173,1.3700307448516469e-06,1.0681648241472885e-06
473,Groty w Nagórzycach,NP-4Ex,51.4964555560218,19.998150000042386,473,Groty w Nagórzycach,51.49645618422409,19.99814946559688,-6.28202286634405e-07,5.344455047406882e-07,0.07904580674796736,6.28202286634405e-07,5.344455047406882e-07
490,Jaskinia Wielka Śnieżna,T-Wielka Śnieżna,49.239941666920984,19.923044444190133,490,Jaskinia Wielka Śnieżna,49.23994281645647,19.923043236834307,-1.1495354854673678e-06,1.2073558259828587e-06,0.1549886353458155,1.1495354854673678e-06,1.2073558259828587e-06
491,Jaskinia Wielka Litworowa,T.E-12.01,49.23808611128065,19.914661110772027,491,Jaskinia Wielka Litworowa,49.23808614439629,19.914661105693444,-3.311564000796352e-08,5.078582887563243e-09,0.003700704356486623,3.311564000796352e-08,5.078582887563243e-09
493,Jaskinia nad Kotlinami,T.E-12.06,49.239391666518316,19.921377777523468,493,Jaskinia nad Kotlinami,49.23939166036958,19.92137784400728,6.148738407318888e-09,-6.648381400964354e-08,0.00487485356877694,6.148738407318888e-09,6.648381400964354e-08
494,Jasny Awen,T.E-12.05,49.23961388905843,19.921336110962763,494,Jasny Awen,49.239613886932375,19.921336078951697,2.1260575522319414e-09,3.201106579808766e-08,0.0023359595411233964,2.1260575522319414e-09,3.201106579808766e-08
495,Jaskinia Wilcza,T.E-12.64,49.241261111365425,19.92410555574629,495,Jaskinia Wilcza,49.24126109477459,19.924105526994413,1.6590831819485174e-08,2.8751877323429653e-08,0.0027856952429310775,1.6590831819485174e-08,2.8751877323429653e-08
496,Jaskinia Śnieżna,T.E-13.01,49.24014722241296,19.92646944469876,496,Jaskinia Śnieżna,49.240147269312146,19.92646947796035,-4.6899188532734115e-08,-3.3261589038602324e-08,0.005746880329224153,4.6899188532734115e-08,3.3261589038602324e-08
650,Jaskinia w Antolce,N-1.1,50.40555555555555,20.092777777777776,650,Jaskinia w Antolce,50.40555557434592,20.092777742653603,-1.8790366596022068e-08,3.512417379170074e-08,0.0032499126681899905,1.8790366596022068e-08,3.512417379170074e-08
651,Schronisko w Bogucicach,N-2.1,50.4825,20.584722222222222,651,Schronisko w Bogucicach,50.48249999986153,20.584722222848846,1.3847056834492832e-10,-6.266240859531536e-10,4.693406992437265e-05,1.3847056834492832e-10,6.266240859531536e-10
653,Jaskinia w Czarkowych,N-1Ex,50.30277777777778,20.708333333333332,653,Jaskinia w Czarkowych,50.30277779416617,20.708333391561293,-1.6388391088639764e-08,-5.822796111942807e-08,0.00451925290967895,1.6388391088639764e-08,5.822796111942807e-08
654,Jaskinia koło Skorocic,N-2Ex,50.43611111111111,20.669444444444444,654,Jaskinia koło Skorocic,50.43611111084793,20.669444444477165,2.631779238981835e-10,-3.2720492981752614e-11,2.935569769604786e-05,2.631779238981835e-10,3.2720492981752614e-11
655,Jaskinia w Skotnikach Małych,N-3Ex,50.43611111111111,20.791666666666668,655,Jaskinia w Skotnikach Małych,50.43611111091817,20.79166666686588,1.929407744682976e-10,-1.992113141113805e-10,2.5677531803155246e-05,1.929407744682976e-10,1.992113141113805e-10
656,Jaskinia Magierowska,N-4Ex,50.4,20.913888888888888,656,Jaskinia Magierowska,50.399999999844646,20.91388888892426,1.553530637465883e-10,-3.537081738613779e-11,1.7455920921356234e-05,1.553530637465883e-10,3.537081738613779e-11
657,Lejowa Studnia (N-2.5),N-5Ex,50.456944444444446,20.599722222222223,657,Lejowa Studnia  (N-2.5),50.456944444752345,20.599722222842587,-3.078994836869242e-10,-6.203642044511071e-10,5.568606611855188e-05,3.078994836869242e-10,6.203642044511071e-10
658,Jaskinia w Krzyżanowicach Górna,N-2.2,50.45416666666667,20.58611111111111,658,Jaskinia w Krzyżanowicach Górna,50.45416666643374,20.586111110723262,2.3293011963687604e-10,3.878461996009719e-10,3.774674553077879e-05,2.3293011963687604e-10,3.878461996009719e-10
659,Jaskinia Lucyny,N-2.3,50.45416666666667,20.58833333333333,659,Jaskinia Lucyny,50.45416666632782,20.588333333076395,3.388507252566342e-10,2.5693580596453103e-10,4.1839645220635896e-05,3.388507252566342e-10,2.5693580596453103e-10
660,Jaskinia w Gackach,N-2.4,50.45583333333334,20.598888888888887,660,Jaskinia w Gackach,50.455833333615686,20.598888888501897,-2.82348366908991e-10,3.8698999560438097e-10,4.166837172588782e-05,2.82348366908991e-10,3.8698999560438097e-10
661,Schron w Marzęcinie,N-2.7,50.46805555555556,20.605833333333333,661,Schron w Marzęcinie,50.46805555554942,20.605833332675356,6.139089236967266e-12,6.57976784168568e-10,4.657432678229278e-05,6.139089236967266e-12,6.57976784168568e-10
662,Jaskinia w Skorocicach wzmiankowana przez Sawickiego,N-6Ex,50.416666666666664,20.666666666666664,662,Jaskinia w Skorocicach wzmiankowana przez Sawickiego,50.416666666578664,20.666666666325657,8.800071782388841e-11,3.410072224596661e-10,2.60676860735975e-05,8.800071782388841e-11,3.410072224596661e-10
663,Jaskinia Żydowska,N-2.9,50.468611111111116,20.605,663,Jaskinia Żydowska,50.468611071014024,20.604999931875852,4.00970918690291e-08,6.812414810042355e-08,0.00656705605147808,4.00970918690291e-08,6.812414810042355e-08
664,Schronisko w Chwałowicach,N-2.10,50.56361111111111,20.62,664,Schronisko w Chwałowicach,50.56361111147952,20.6199999995936,-3.6840930306425435e-10,4.064020231453469e-10,5.002164408868941e-05,3.6840930306425435e-10,4.064020231453469e-10
665,Schronisko przy Rowie,N-2.11,50.425,20.649166666666666,665,Schronisko przy Rowie,50.42499999989162,20.64916666616566,1.0837908348548808e-10,5.010072356981254e-10,3.7482062093595054e-05,1.0837908348548808e-10,5.010072356981254e-10
666,Jaskinia Lisia,N-2.12,50.42472222222222,20.649166666666666,666,Jaskinia Lisia,50.42472222520116,20.649166643945467,-2.978936208819505e-09,2.2721199144370985e-08,0.001643330311024075,2.978936208819505e-09,2.2721199144370985e-08
667,Schronisko przy Lisiej,N-2.13,50.42472222222222,20.649166666666666,667,Schronisko przy Lisiej,50.42472222218416,20.649166666373688,3.806377435466857e-11,2.929780862359621e-10,2.1181918175023804e-05,3.806377435466857e-11,2.929780862359621e-10
668,Schronisko Bajkowe,N-2.17,50.44277777777778,20.649722222222223,668,Schronisko Bajkowe,50.44277777738328,20.649722222747094,3.945004323213652e-10,-5.248708134786284e-10,5.749539111783154e-05,3.945004323213652e-10,5.248708134786284e-10
669,Schronisko Ciepłe,G-1.1,50.85583333333334,20.640833333333333,669,Schronisko Ciepłe,50.85583333340216,20.64083333363744,-6.88231693857233e-11,-3.041051854779653e-10,2.2676992841328612e-05,6.88231693857233e-11,3.041051854779653e-10
670,Schronisko Równoległe,G-1.2,50.85583333333334,20.641388888888887,670,Schronisko Równoległe,50.85583333371776,20.64138888898587,-3.84424936328287e-10,-9.698197800389607e-11,4.3285037650282146e-05,3.84424936328287e-10,9.698197800389607e-11
671,Jaskinia Debiutantów,G-1.3,50.85583333333334,20.6425,671,Jaskinia Debiutantów,50.855833333606526,20.642499999750353,-2.731894710450433e-10,2.496456374956324e-10,3.506945009673417e-05,2.731894710450433e-10,2.496456374956324e-10
672,Schronisko Gliniaste,G-1.4,50.85444444444445,20.643333333333334,672,Schronisko Gliniaste,50.854444417486846,20.64333339403411,2.6957600596233533e-08,-6.070077418485198e-08,0.00520972960459914,2.6957600596233533e-08,6.070077418485198e-08
673,Jaskinia na Wietrzni,G-1.5,50.85444444444445,20.645,673,Jaskinia na Wietrzni,50.85444441229328,20.645000062009046,3.2151163509297476e-08,-6.200904678621555e-08,0.00563276146928097,3.2151163509297476e-08,6.200904678621555e-08
674,Schronisko z Żyłą,G-1.6,50.86222222222222,20.618333333333332,674,Schronisko z Żyłą,50.8622222222026,20.618333332995515,1.9625190361693967e-11,3.3781688557610323e-10,2.3810065803414276e-05,1.9625190361693967e-11,3.3781688557610323e-10
675,Jaskinia Odkrywców,G-1.7,50.86222222222222,20.61861111111111,675,Jaskinia Odkrywców,50.862222239909265,20.618611086084496,-1.7687042941361142e-08,2.502661544667717e-08,0.0026368916820989755,1.7687042941361142e-08,2.502661544667717e-08
676,Prochownia,G-1.8,50.86222222222222,20.61861111111111,676,Prochownia,50.862222222470066,20.618611111066755,-2.4784441166048055e-10,4.4355630279824254e-11,2.773399866267191e-05,2.4784441166048055e-10,4.4355630279824254e-11
677,Szczelina na Kadzielni,G-1.9,50.861666666666665,20.61861111111111,677,Szczelina na Kadzielni,50.861666666738216,20.618611110974474,-7.155165349104209e-11,1.3663736808666727e-10,1.246068047536611e-05,7.155165349104209e-11,1.3663736808666727e-10
678,Schronisko Zjazdowe,G-1.10,50.861666666666665,20.61861111111111,678,Schronisko Zjazdowe,50.86166663703814,20.618611176753586,2.9628523634528392e-08,-6.564247456708472e-08,0.005663915315546198,2.9628523634528392e-08,6.564247456708472e-08
679,Schronisko Kontaktowe,G-1.11,50.861666666666665,20.61861111111111,679,Schronisko Kontaktowe,50.861666666738216,20.618611110974474,-7.155165349104209e-11,1.3663736808666727e-10,1.246068047536611e-05,7.155165349104209e-11,1.3663736808666727e-10
680,Schronisko nad Szczeliną,G-1.12,50.861666666666665,20.61861111111111,680,Schronisko nad Szczeliną,50.861666666738216,20.618611110974474,-7.155165349104209e-11,1.3663736808666727e-10,1.246068047536611e-05,7.155165349104209e-11,1.3663736808666727e-10
681,Jaskinia pod Łodzikami,G-1.13,50.86138888888889,20.61888888888889,681,Jaskinia pod Łodzikami,50.861388852846915,20.618888828128306,3.6041974738054705e-08,6.076058411963459e-08,0.005852170268819107,3.6041974738054705e-08,6.076058411963459e-08
682,Nocna Loża,G-1.15,50.86,20.618333333333332,682,Nocna Loża,50.85999999783712,20.618333289853354,2.1628778767990298e-09,4.347997872855558e-08,0.0030612423216966325,2.1628778767990298e-09,4.347997872855558e-08
683,Jaskinia Wschodnia na Kadzielni,G-1.14,50.861111111111114,20.61888888888889,683,Jaskinia Wschodnia na Kadzielni,50.86111114131274,20.618888875020687,-3.0201626088910416e-08,1.3868202586309053e-08,0.0034964826815931317,3.0201626088910416e-08,1.3868202586309053e-08
684,Kominy I,G-1.16,50.86222222222222,20.61722222222222,684,Kominy I,50.86222222259282,20.61722222225958,-3.7059777469039545e-10,-3.736033704626607e-11,4.129198996107631e-05,3.7059777469039545e-10,3.736033704626607e-11
685,Schronisko z Koralami,G-1.17,50.86222222222222,20.61722222222222,685,Schronisko z Koralami,50.86222222259282,20.61722222225958,-3.7059777469039545e-10,-3.736033704626607e-11,4.129198996107631e-05,3.7059777469039545e-10,3.736033704626607e-11
686,Schronisko w Rafie,G-1.18,50.86222222222222,20.61722222222222,686,Schronisko w Rafie,50.86222222259282,20.61722222225958,-3.7059777469039545e-10,-3.736033704626607e-11,4.129198996107631e-05,3.7059777469039545e-10,3.736033704626607e-11
687,Kominy II,G-1.19,50.86222222222222,20.6175,687,Kominy II,50.8622222219087,20.617500000267075,3.135198767267866e-10,-2.6707525080382766e-10,3.9581746206442875e-05,3.135198767267866e-10,2.6707525080382766e-10
688,Schronisko Mysie,G-1.20,50.86194444444445,20.6175,688,Schronisko Mysie,50.86194444452666,20.617500000427977,-8.220979452744359e-11,-4.2797765331670234e-10,3.139800295907875e-05,8.220979452744359e-11,4.2797765331670234e-10
689,Piotrusiowa Jama,G-1.21,50.86194444444445,20.6175,689,Piotrusiowa Jama,50.86194444452666,20.617500000427977,-8.220979452744359e-11,-4.2797765331670234e-10,3.139800295907875e-05,8.220979452744359e-11,4.2797765331670234e-10
690,Jaskinia Zawaliskowa,G-1.22,50.86194444444445,20.61777777777778,690,Jaskinia Zawaliskowa,50.861944480614454,20.61777773826393,-3.617000743361132e-08,3.951384996980778e-08,0.004885385303610736,3.617000743361132e-08,3.951384996980778e-08
691,Schronisko nad Zawaliskową,G-1.23,50.86125,20.618308333290948,691,Schronisko nad Zawaliskową,50.8612488748699,20.618307649778,1.1251300975345657e-06,6.835129475746271e-07,0.13399116942310055,1.1251300975345657e-06,6.835129475746271e-07
692,Schronisko Nietoperza,G-1.24,50.86138888888889,20.6175,692,Schronisko Nietoperza,50.861388888844765,20.61749999941162,4.412470389070222e-11,5.883791232008662e-10,4.1586288083094074e-05,4.412470389070222e-11,5.883791232008662e-10
693,Komin Geologów,G-1.25,50.861111111111114,20.616666666666667,693,Komin Geologów,50.86111109419328,20.616666622294797,1.6917837797336688e-08,4.437186973405005e-08,0.003638369582267304,1.6917837797336688e-08,4.437186973405005e-08
694,Jaskinia Urwista na Kadzielni,G-1.26,50.861111111111114,20.616666666666667,694,Jaskinia Urwista na Kadzielni,50.86111111066754,20.616666666928683,4.4357761908031534e-10,-2.6201618652521574e-10,5.264047967573141e-05,4.4357761908031534e-10,2.6201618652521574e-10
695,Polny Schron,N-2.18,50.442499999999995,20.649722222222223,695,Polny Schron,50.44249999954636,20.649722222829663,4.5363890421867836e-10,-6.074394320876308e-10,6.629337012465794e-05,4.5363890421867836e-10,6.074394320876308e-10
696,Schronisko w Chotelku,N-2.19,50.439166666666665,20.675,696,Schronisko w Chotelku,50.43916666653338,20.67499999933198,1.332836063738796e-10,6.68020305738537e-10,4.9576195427333497e-05,1.332836063738796e-10,6.68020305738537e-10
697,Schronisko Niespodzianka w Wielkiej Górze,N-2.20,50.420833333333334,20.672222222222224,697,Schronisko Niespodzianka w Wielkiej Górze,50.42083333323469,20.672222222150378,9.864464800557471e-11,7.184652872638253e-11,1.2092611426412114e-05,9.864464800557471e-11,7.184652872638253e-11
698,Tunel w Skorocicach,N-2.21,50.420833333333334,20.671666666666667,698,Tunel w Skorocicach,50.42083333374321,20.67166666696209,-4.098765771232138e-10,-2.9542235324697685e-10,5.015176166319332e-05,4.098765771232138e-10,2.9542235324697685e-10
699,Schronisko przy Tunelu,N-2.22,50.420833333333334,20.671666666666667,699,Schronisko przy Tunelu,50.42083333374321,20.67166666696209,-4.098765771232138e-10,-2.9542235324697685e-10,5.015176166319332e-05,4.098765771232138e-10,2.9542235324697685e-10
700,Szczelina w Skorocicach,N-2.23,50.420833333333334,20.67138888888889,700,Szczelina w Skorocicach,50.42083333345201,20.671388889359775,-1.1867484772665193e-10,-4.70883776415576e-10,3.587580708091758e-05,1.1867484772665193e-10,4.70883776415576e-10
701,Szczelina Magdaleny,N-2.24,50.420833333333334,20.671666666666667,701,Szczelina Magdaleny,50.42083333374321,20.67166666696209,-4.098765771232138e-10,-2.9542235324697685e-10,5.015176166319332e-05,4.098765771232138e-10,2.9542235324697685e-10
702,Schronisko w Zielonej Górze,N-2.25,50.42027777777778,20.67138888888889,702,Schronisko w Zielonej Górze,50.42027776779641,20.671388868492524,9.98137039687208e-09,2.0396367261810155e-08,0.0018220793691682054,9.98137039687208e-09,2.0396367261810155e-08
703,Jaskinia z Potokiem,N-2.26,50.42027777777778,20.672222222222224,703,Jaskinia z Potokiem,50.42027775629772,20.67222223196851,2.148005506796835e-08,-9.746287332745851e-09,0.0024862824674897334,2.148005506796835e-08,9.746287332745851e-09
704,Schronisko Ptaszników,N-2.30,50.41972222222222,20.671944444444446,704,Schronisko Ptaszników,50.419722222050346,20.67194444418115,1.7187318235301063e-10,2.632951634495839e-10,2.6706098999571122e-05,1.7187318235301063e-10,2.632951634495839e-10
710,Schronisko ze Studnią,N-2.14,50.42472222222222,20.649166666666666,710,Schronisko ze Studnią,50.42472222218416,20.649166666373688,3.806377435466857e-11,2.929780862359621e-10,2.1181918175023804e-05,3.806377435466857e-11,2.929780862359621e-10
711,Jaskinia w Skotnikach Górnych,N-2.15,50.42472222222222,20.649166666666666,711,Jaskinia w Skotnikach Górnych,50.42472222218416,20.649166666373688,3.806377435466857e-11,2.929780862359621e-10,2.1181918175023804e-05,3.806377435466857e-11,2.929780862359621e-10
712,Schronisko w Skotnikach Dolnych,N-2.16,50.41722222222222,20.633055555555558,712,Schronisko w Skotnikach Dolnych,50.41722222224033,20.63305555588884,-1.8111734334524954e-11,-3.332836229219538e-10,2.3699789651211008e-05,1.8111734334524954e-11,3.332836229219538e-10
713,Schronisko nad Jaskinią z Potokiem,N-2.27,50.42027777777778,20.672222222222224,713,Schronisko nad Jaskinią z Potokiem,50.42027777802079,20.67222222287626,-2.4301272105731186e-10,-6.540368246987782e-10,5.3640801322592314e-05,2.4301272105731186e-10,6.540368246987782e-10
714,Wielki Schron,N-2.28,50.419999999999995,20.672222222222224,714,Wielki Schron,50.42000002549326,20.672222167150757,-2.5493264388387615e-08,5.507146738636948e-08,0.004822769825643701,2.5493264388387615e-08,5.507146738636948e-08
715,Jaskinia Stara,N-2.29,50.419999999999995,20.672222222222224,715,Jaskinia Stara,50.42000000040482,20.672222222594264,-4.048246182719595e-10,-3.7204017644398846e-10,5.216419434578018e-05,4.048246182719595e-10,3.7204017644398846e-10
716,Schronisko z Zaciskiem,N-2.40,50.41888888888889,20.671111111111113,716,Schronisko z Zaciskiem,50.418888889295694,20.671111110507397,-4.0680703250473016e-10,6.037161881522479e-10,6.225546663292356e-05,4.0680703250473016e-10,6.037161881522479e-10
717,Mały Tunel,N-2.41,50.41861111111111,20.670555555555556,717,Mały Tunel,50.41861111145885,20.670555555394756,-3.4773961488099303e-10,1.6079937381618947e-10,4.031065079776275e-05,3.4773961488099303e-10,1.6079937381618947e-10
718,Schronisko Trójkątne,N-2.42,50.41861111111111,20.67027777777778,718,Schronisko Trójkątne,50.41861111126591,20.67027777815752,-1.5479884041269543e-10,-3.7973890698594914e-10,3.194001512762879e-05,1.5479884041269543e-10,3.7973890698594914e-10
719,Schronisko Marcina,N-2.50,50.40222222222222,20.680555555555557,719,Schronisko Marcina,50.40222222255024,20.680555555959643,-3.2802205396365025e-10,-4.04085653826769e-10,4.637476366378341e-05,3.2802205396365025e-10,4.04085653826769e-10
720,Jaskinia w Krzyżanowicach Dolna,N-9Ex,50.45333333333333,20.58833333333333,720,Jaskinia w Krzyżanowicach Dolna,50.453333333635456,20.588333333977687,-3.021227712451946e-10,-6.443556799240469e-10,5.6654265203926626e-05,3.021227712451946e-10,6.443556799240469e-10
721,Schronisko Piecowe,N-2.57,50.42388888888889,20.683888888888887,721,Schronisko Piecowe,50.42388888892068,20.68388888847756,-3.178968199790688e-11,4.113260843041644e-10,2.9353005928074314e-05,3.178968199790688e-11,4.113260843041644e-10
722,Dwie Studnie,N-2.58,50.44888888888889,20.691111111111113,722,Dwie Studnie,50.44888888921635,20.69111111129088,-3.2746072520239977e-10,-1.7976731214730535e-10,3.857291305048723e-05,3.2746072520239977e-10,1.7976731214730535e-10
723,Schronisko przy Dziupli,N-2.59,50.44972222222222,20.691111111111113,723,Schronisko przy Dziupli,50.44972222244887,20.69111111142179,-2.2664892185275676e-10,-3.106777057837462e-10,3.3452292903852734e-05,2.2664892185275676e-10,3.106777057837462e-10
724,Dziura w Leju,N-2.75,50.48583333333333,20.74361111111111,724,Dziura w Leju,50.48583330280606,20.74361110236482,3.052727493013663e-08,8.746290802719159e-09,0.003450419423892224,3.052727493013663e-08,8.746290802719159e-09
725,Jaskinia Sawickiego,N-2.72,50.46222222222222,20.74888888888889,725,Jaskinia Sawickiego,50.462222222577104,20.74888888939607,-3.5488056937538204e-10,-5.071818520718807e-10,5.334823056363442e-05,3.5488056937538204e-10,5.071818520718807e-10
726,Schronisko Wschodnie pod Skałką,N-2.73,50.46222222222222,20.749166666666667,726,Schronisko Wschodnie pod Skałką,50.46222222241474,20.749166666384717,-1.9251444882684154e-10,2.8195046297696535e-10,2.9266911606310804e-05,1.9251444882684154e-10,2.8195046297696535e-10
730,Jaskinia Dzwonów,N-2.31,50.41972222222222,20.671944444444446,730,Jaskinia Dzwonów,50.41972223784293,20.671944409533037,-1.5620713611497195e-08,3.491140887490474e-08,0.003022390083892954,1.5620713611497195e-08,3.491140887490474e-08
731,Jaskinia Górna,N-2.32,50.419444444444444,20.672222222222224,731,Jaskinia Górna,50.41944444423532,20.672222222116144,2.0912693798891269e-10,1.0608047773530416e-10,2.4438282219959234e-05,2.0912693798891269e-10,1.0608047773530416e-10
732,Jaskinia Skorocicka,N-2.33,50.41916666666666,20.671944444444446,732,Jaskinia Skorocicka,50.41916668419221,20.671944420923584,-1.7525550788377586e-08,2.3520861702763796e-08,0.0025641126789376772,1.7525550788377586e-08,2.3520861702763796e-08
733,Słomiany Tunel,N-2.34,50.419444444444444,20.671666666666667,733,Słomiany Tunel,50.41944444482666,20.67166666628995,-3.822151484200731e-10,3.767155476452899e-10,5.018598045335744e-05,3.822151484200731e-10,3.767155476452899e-10
734,Schronisko Północne,N-2.35,50.41972222222222,20.670833333333334,734,Schronisko Północne,50.41972222238497,20.670833333095825,-1.6274981362585095e-10,2.375095675688499e-10,2.4711324268495733e-05,1.6274981362585095e-10,2.375095675688499e-10
735,Schronisko w Skorocicach pod Drogą Zachodnie,N-2.36,50.41916666666666,20.671111111111113,735,Schronisko w Skorocicach pod Drogą Zachodnie,50.41916669350865,20.67111107690117,-2.6841988187698007e-08,3.420994332259397e-08,0.003844868533353753,2.6841988187698007e-08,3.420994332259397e-08
736,Schronisko w Skorocicach pod Drogą Wschodnie,N-2.37,50.41916666666666,20.67138888888889,736,Schronisko w Skorocicach pod Drogą Wschodnie,50.41916666041824,20.671388904117578,6.248420447718672e-09,-1.5228685867896274e-08,0.0012833019795657965,6.248420447718672e-09,1.5228685867896274e-08
737,Jaskinia Ucho Olki,N-2.38,50.41916666666666,20.670555555555556,737,Jaskinia Ucho Olki,50.419166666714474,20.67055555580891,-4.781242068929714e-11,-2.533546705763001e-10,1.8720926636492344e-05,4.781242068929714e-11,2.533546705763001e-10
738,Schronisko w Okrągłej Górze,N-2.39,50.41888888888889,20.671111111111113,738,Schronisko w Okrągłej Górze,50.418888889295694,20.671111110507397,-4.0680703250473016e-10,6.037161881522479e-10,6.225546663292356e-05,4.0680703250473016e-10,6.037161881522479e-10
739,Jaskinia w Skorocicach u Ujścia Doliny,N-2.43,50.41833333333333,20.67027777777778,739,Jaskinia w Skorocicach u Ujścia Doliny,50.418333333623174,20.670277778226804,-2.8984459277126007e-10,-4.490239291499165e-10,4.5286159472269496e-05,2.8984459277126007e-10,4.490239291499165e-10
740,Jaskinia nad Wodą,N-2.44,50.418055555555554,20.671111111111113,740,Jaskinia nad Wodą,50.41805555538972,20.6711111115396,1.6583356909904978e-10,-4.284856913727708e-10,3.552032228314899e-05,1.6583356909904978e-10,4.284856913727708e-10
741,Mostek w Aleksandrowie,N-2.45,50.401666666666664,20.678611111111113,741,Mostek w Aleksandrowie,50.401666666588355,20.678611110710488,7.830891490812064e-11,4.006253107036173e-10,2.9699491752940083e-05,7.830891490812064e-11,4.006253107036173e-10
742,Jaskinia Flisa,N-2.46,50.401944444444446,20.679444444444446,742,Jaskinia Flisa,50.40194444476243,20.67944444466793,-3.1798208510736004e-10,-2.234834539649455e-10,3.874338311192766e-05,3.1798208510736004e-10,2.234834539649455e-10
743,Jaskinia w Aleksandrowie,N-2.47,50.401944444444446,20.679444444444446,743,Jaskinia w Aleksandrowie,50.40194444476243,20.67944444466793,-3.1798208510736004e-10,-2.234834539649455e-10,3.874338311192766e-05,3.1798208510736004e-10,2.234834539649455e-10
744,Schron z Przepływem,N-2.48,50.40163055552377,20.68249444431729,744,Schron z Przepływem,50.40163091342855,20.682493691988387,-3.579047813673242e-07,7.523289013988688e-07,0.06653607444676576,3.579047813673242e-07,7.523289013988688e-07
745,Schronisko Narożne,N-2.49,50.401180555555555,20.682497222688465,745,Schronisko Narożne,50.4011814313066,20.682496696544636,-8.757510414625358e-07,5.261438289494436e-07,0.1042752215089286,8.757510414625358e-07,5.261438289494436e-07
746,Jaskinia w Łagiewnikach,N-8Ex,50.49111111111111,20.744444444444447,746,Jaskinia w Łagiewnikach,50.49111111155518,20.74444444396955,-4.440678935679898e-10,4.748983428726206e-10,5.972322953500179e-05,4.440678935679898e-10,4.748983428726206e-10
747,Jaskinia w Ryglu,N-2.51,50.401944444444446,20.680555555555557,747,Jaskinia w Ryglu,50.40194444481568,20.680555555960968,-3.7123726315257954e-10,-4.0541081602896156e-10,5.029529835774611e-05,3.7123726315257954e-10,4.0541081602896156e-10
748,Jaskinia na Kontakcie,N-2.52,50.401944444444446,20.68166666666667,748,Jaskinia na Kontakcie,50.40194444414501,20.68166666734645,2.994369197040214e-10,-6.797833407290454e-10,5.8565660921494385e-05,2.994369197040214e-10,6.797833407290454e-10
749,Jaskinia pod Wygódką,N-2.54,50.401752777761885,20.682211110856798,749,Jaskinia pod Wygódką,50.4017515053608,20.682211564525204,1.2724010858278234e-06,-4.536684059530671e-07,0.14509224820906683,1.2724010858278234e-06,4.536684059530671e-07
750,Schronisko Samotne,N-2.53,50.401944444444446,20.681944444444447,750,Schronisko Samotne,50.40194444457692,20.68194444452868,-1.3247358765511308e-10,-8.423128861068108e-11,1.5893871705706423e-05,1.3247358765511308e-10,8.423128861068108e-11
751,Schronisko z Czosnkiem,N-2.55,50.40138888888889,20.6825,751,Schronisko z Czosnkiem,50.401388888721755,20.682500000177473,1.6713386230549077e-10,-1.7747225911080022e-10,2.2440859887899795e-05,1.6713386230549077e-10,1.7747225911080022e-10
752,Dziupla,N-2.60,50.44972222222222,20.691111111111113,752,Dziupla,50.44972222244887,20.69111111142179,-2.2664892185275676e-10,-3.106777057837462e-10,3.3452292903852734e-05,2.2664892185275676e-10,3.106777057837462e-10
753,Jaskinia w Woli Zagojskiej,N-7Ex,50.4375,20.613333333333333,753,Jaskinia w Woli Zagojskiej,50.43750000023932,20.6133333329016,-2.3931789883135934e-10,4.3173287167519447e-10,4.053448290402886e-05,2.3931789883135934e-10,4.3173287167519447e-10
754,Jaskinia Szeroka,N-2.61,50.44972222222222,20.691111111111113,754,Jaskinia Szeroka,50.44972222244887,20.69111111142179,-2.2664892185275676e-10,-3.106777057837462e-10,3.3452292903852734e-05,2.2664892185275676e-10,3.106777057837462e-10
755,Jaskinia Półkolista,N-2.62,50.45027777777778,20.692222222222224,755,Jaskinia Półkolista,50.45027777778505,20.692222222750416,-7.268852186825825e-12,-5.281926007683069e-10,3.740633788441493e-05,7.268852186825825e-12,5.281926007683069e-10
756,Jaskinia w Siesławicach,N-2.63,50.449999999999996,20.693333333333335,756,Jaskinia w Siesławicach,50.45000000011434,20.693333333417087,-1.1434764246587292e-10,-8.375167226404301e-11,1.4029608879885929e-05,1.1434764246587292e-10,8.375167226404301e-11
757,Schronisko Wschodnie w Siesławicach,N-2.64,50.449999999999996,20.69361111111111,757,Schronisko Wschodnie w Siesławicach,50.45000000005493,20.69361111053716,-5.4932058901613345e-11,5.739515529512573e-10,4.109433987576284e-05,5.4932058901613345e-11,5.739515529512573e-10
758,Schronisko Wodne I,N-2.65,50.45055555555556,20.693333333333335,758,Schronisko Wodne I,50.45055555563711,20.693333333523565,-8.15489897831867e-11,-1.9023005393137282e-10,1.6236778558914504e-05,8.15489897831867e-11,1.9023005393137282e-10
759,Jaskinia Wodna w Siesławicach,N-2.67,50.45055555555556,20.69361111111111,759,Jaskinia Wodna w Siesławicach,50.450555555586334,20.693611111080816,-3.077360588576994e-11,3.029398953913187e-11,4.038700617257518e-06,3.077360588576994e-11,3.029398953913187e-11
760,Smocza Jama,T.E-08.07,49.23783888869816,19.86773333330949,760,Smocza Jama,49.2378402749601,19.867733697873316,-1.3862619425708544e-06,-3.645638244620386e-07,0.15640115028517326,1.3862619425708544e-06,3.645638244620386e-07
770,Schronisko w Łatanicach II,N-10Ex,50.41444444444444,20.691388888888888,770,Schronisko w Łatanicach II,50.414444444521216,20.691388889251368,-7.677414259887883e-11,-3.624798239343363e-10,2.7065759607268117e-05,7.677414259887883e-11,3.624798239343363e-10
771,Schronisko w Grodzisku,N-2.74,50.44194444444444,20.802222222222223,771,Schronisko w Grodzisku,50.4419444441608,20.802222222475795,2.836415546880744e-10,-2.5357138611070695e-10,3.6293042156270966e-05,2.836415546880744e-10,2.5357138611070695e-10
772,Schronisko Mokre,N-2.68,50.45055555555556,20.69361111111111,772,Schronisko Mokre,50.450555555586334,20.693611111080816,-3.077360588576994e-11,3.029398953913187e-11,4.038700617257518e-06,3.077360588576994e-11,3.029398953913187e-11
773,Studzienka w Siesławicach,N-2.69,50.450833333333335,20.693333333333335,773,Studzienka w Siesławicach,50.45083333337939,20.693333333636325,-4.6057380131969694e-11,-3.029896333828219e-10,2.2055253844098866e-05,4.6057380131969694e-11,3.029896333828219e-10
774,Jaskinia ze Świetlikami,N-2.70,50.450833333333335,20.693333333333335,774,Jaskinia ze Świetlikami,50.45083333337939,20.693333333636325,-4.6057380131969694e-11,-3.029896333828219e-10,2.2055253844098866e-05,4.6057380131969694e-11,3.029896333828219e-10
775,Jaskinia Opalowa,N-2.71,50.37166666666667,20.711111111111112,775,Jaskinia Opalowa,50.371666666898385,20.71111111058606,-2.3171509155872627e-10,5.250520018762472e-10,4.5282094944447504e-05,2.3171509155872627e-10,5.250520018762472e-10
776,Jaskinia w Śladkowie Dużym,N-2.77,50.581944444444446,20.710555555555555,776,Jaskinia w Śladkowie Dużym,50.581944444188586,20.710555554873167,2.558593337198545e-10,6.823874798556062e-10,5.5953291326628116e-05,2.558593337198545e-10,6.823874798556062e-10
777,Schronisko w Śladkowie Małym,N-2.78,50.57805555555556,20.749444444444446,777,Schronisko w Śladkowie Małym,50.57805559456786,20.74944439159904,-3.90122991689168e-08,5.284540449679298e-08,0.005722071721091115,3.90122991689168e-08,5.284540449679298e-08
778,Grota Szydły I,N-2.79,50.58916666666667,21.000555555555554,778,Grota Szydły I,50.58916663080534,21.00055551892516,3.5861333458342415e-08,3.663039294110604e-08,0.004752677766832888,3.5861333458342415e-08,3.663039294110604e-08
779,Grota Szydły II,N-2.80,50.58916666666667,21.000555555555554,779,Grota Szydły II,50.58916663080534,21.00055551892516,3.5861333458342415e-08,3.663039294110604e-08,0.004752677766832888,3.5861333458342415e-08,3.663039294110604e-08
780,Jaskinia pod Świecami,N-2.81,50.60138888888889,21.18166666666667,780,Jaskinia pod Świecami,50.601388889075075,21.181666666702142,-1.8618351305121905e-10,-3.5473846082823e-11,2.0853492841118046e-05,1.8618351305121905e-10,3.5473846082823e-11
781,Schronisko Wschodnie w Podwalu,N-2.82,50.605555555555554,21.378611111111113,781,Schronisko Wschodnie w Podwalu,50.605555555169,21.378611110855086,3.865565645355673e-10,2.560263112627581e-10,4.6625643834925086e-05,3.865565645355673e-10,2.560263112627581e-10
782,Jamy w Podwalu,N-2.83,50.605555555555554,21.378333333333334,782,Jamy w Podwalu,50.605555555650696,21.37833333271905,-9.514167231827741e-11,6.142855113466794e-10,4.4622712185606604e-05,9.514167231827741e-11,6.142855113466794e-10
783,Jaskinia Szydłowska,N-2.84,50.59111111111111,20.99888888888889,783,Jaskinia Szydłowska,50.591111110967056,20.998888889549743,1.440554342480027e-10,-6.608544822483964e-10,4.93243609963327e-05,1.440554342480027e-10,6.608544822483964e-10
784,Schronisko w Siesławicach I,N-11Ex,50.449999999999996,20.69388888888889,784,Schronisko w Siesławicach I,50.45000000021096,20.693888889081514,-2.1096724367453135e-10,-1.9262458295088436e-10,2.7134894841249573e-05,2.1096724367453135e-10,1.9262458295088436e-10
785,Schronisko w Siesławicach II,N-12Ex,50.449999999999996,20.69388888888889,785,Schronisko w Siesławicach II,50.45000000021096,20.693888889081514,-2.1096724367453135e-10,-1.9262458295088436e-10,2.7134894841249573e-05,2.1096724367453135e-10,1.9262458295088436e-10
786,Jaskinie w Leszczach,N-13Ex,50.45333333333333,20.58833333333333,786,Jaskinie w Leszczach,50.453333333635456,20.588333333977687,-3.021227712451946e-10,-6.443556799240469e-10,5.6654265203926626e-05,3.021227712451946e-10,6.443556799240469e-10
787,Jaskinia w Sielcu,N-14Ex,50.368611111111115,20.663055555555555,787,Jaskinia w Sielcu,50.36861111068057,20.663055556236134,4.305462653064751e-10,-6.805791485930968e-10,6.798525834166808e-05,4.305462653064751e-10,6.805791485930968e-10
788,Jaskinia w Unikowie,N-15Ex,50.5375,20.644444444444446,788,Jaskinia w Unikowie,50.53750000037473,20.644444444437365,-3.7472602798516164e-10,7.080558361849398e-12,4.166999265938693e-05,3.7472602798516164e-10,7.080558361849398e-12
789,Pustki podziemne w Staszowie,N-16Ex,50.56916666666667,21.17138888888889,789,Pustki podziemne w Staszowie,50.56916666704544,21.17138888847206,-3.787690161516366e-10,4.1683279050630517e-10,5.1386165946596036e-05,3.787690161516366e-10,4.1683279050630517e-10
790,Jaskinia krasowa w Staszowie,N-17Ex,50.56916666666667,21.17138888888889,790,Jaskinia krasowa w Staszowie,50.56916666704544,21.17138888847206,-3.787690161516366e-10,4.1683279050630517e-10,5.1386165946596036e-05,3.787690161516366e-10,4.1683279050630517e-10
791,Jaskinie w Piasecznie i Machowie,N-18Ex,50.551944444444445,21.595277777777778,791,Jaskinie w Piasecznie i Machowie,50.551944481376175,21.595277815752613,-3.693173056262822e-08,-3.7974835720433475e-08,0.004905362526890527,3.693173056262822e-08,3.7974835720433475e-08
792,Pustki podziemne w Posądzy,N-19Ex,50.551944444444445,21.595277777777778,792,Pustki podziemne w Posądzy,50.55194444441858,21.595277778415497,2.5863755581667647e-11,-6.377192107720475e-10,4.5147180308236115e-05,2.5863755581667647e-11,6.377192107720475e-10
793,Studnia w Szańcu I,N-20Ex,50.52444444444444,20.66638888888889,793,Studnia w Szańcu I,50.524444453523714,20.66638894950816,-9.079272444978415e-09,-6.061927138034662e-08,0.004402617037293362,9.079272444978415e-09,6.061927138034662e-08
794,Studnia w Szańcu II,N-21Ex,50.525,20.666666666666664,794,Studnia w Szańcu II,50.52499999985287,20.6666666663592,1.4713208429384395e-10,3.0746605261811055e-10,2.7204468928621837e-05,1.4713208429384395e-10,3.0746605261811055e-10
795,Jaskinia w Marzęcinie,N-22Ex,50.46944444444445,20.605555555555558,795,Jaskinia w Marzęcinie,50.46944444449513,20.605555555354087,-5.0683013341767946e-11,2.014708400110976e-10,1.5332231893372565e-05,5.0683013341767946e-11,2.014708400110976e-10
796,Schronisko Stołowe,N-23Ex,50.46555555555556,20.60611111111111,796,Schronisko Stołowe,50.46555555568789,20.606111110669147,-1.3233147910796106e-10,4.419646870701399e-10,3.457036518127442e-05,1.3233147910796106e-10,4.419646870701399e-10
797,Schronisko Mysia Nora,N-24Ex,50.46555555555556,20.60611111111111,797,Schronisko Mysia Nora,50.46555555568789,20.606111110669147,-1.3233147910796106e-10,4.419646870701399e-10,3.457036518127442e-05,1.3233147910796106e-10,4.419646870701399e-10
799,Jaskinia Deszczowa,N-25Ex,50.516666666666666,20.68611111111111,799,Jaskinia Deszczowa,50.5166666671037,20.686111110565385,-4.370335204839648e-10,5.457252427731873e-10,6.20512245281726e-05,4.370335204839648e-10,5.457252427731873e-10
800,Studnia w Jędrzejowie,N-26Ex,50.6275,20.296666666666667,800,Studnia w Jędrzejowie,50.627499999724165,20.296666667253817,2.758326900220709e-10,-5.871498842680012e-10,5.153699255479833e-05,2.758326900220709e-10,5.871498842680012e-10
801,Sołecka Studnia w Gackach (N-2.6),N-27Ex,50.456944444444446,20.599722222222223,801,Sołecka Studnia w Gackach (N-2.6),50.456944444752345,20.599722222842587,-3.078994836869242e-10,-6.203642044511071e-10,5.568606611855188e-05,3.078994836869242e-10,6.203642044511071e-10
802,Schronisko Małe (N-2.8),N-28Ex,50.46611111111111,20.605833333333333,802,Schronisko Małe (N-2.8),50.46611111093791,20.60583333270906,1.7320189726888202e-10,6.242721894977876e-10,4.8200717928475674e-05,1.7320189726888202e-10,6.242721894977876e-10
803,Jaskinia w Łatanicach (N-2.56),N-29Ex,50.41444444444444,20.6925,803,Jaskinia w Łatanicach (N-2.56),50.41444444422474,20.692500000082024,2.1969981389702298e-10,-8.202505341614597e-11,2.5111402221534868e-05,2.1969981389702298e-10,8.202505341614597e-11
804,Schron w Małym Żlebku,T.A-12.03,49.27624722268846,19.914122222264606,804,Schron w Małym Żlebku,49.27624722828869,19.91412227342928,-5.600227837021521e-09,-5.1164676051485e-08,0.0037636142898162853,5.600227837021521e-09,5.1164676051485e-08
805,Jaskinia za Filarem,G-1.27,50.86138888888889,20.616666666666667,805,Jaskinia za Filarem,50.86138888897355,20.616666665994615,-8.466116696581594e-11,6.720526357639756e-10,4.809921251600895e-05,8.466116696581594e-11,6.720526357639756e-10
806,Schronisko Niedostępne,G-1.28,50.86138888888889,20.616666666666667,806,Schronisko Niedostępne,50.8613888937978,20.61666670738297,-4.908912387691089e-09,-4.07163014415346e-08,0.0029093811582426876,4.908912387691089e-09,4.07163014415346e-08
807,Schronisko nad Przepaścią,G-1.29,50.86138888888889,20.616388888888892,807,Schronisko nad Przepaścią,50.86138888858651,20.616388888663295,3.0237856663006824e-10,2.255973186038318e-10,3.716432631773177e-05,3.0237856663006824e-10,2.255973186038318e-10
808,Jaskinia Jeleniowska,G-1.30,50.86138888888889,20.616666666666667,808,Jaskinia Jeleniowska,50.86138888897355,20.616666665994615,-8.466116696581594e-11,6.720526357639756e-10,4.809921251600895e-05,8.466116696581594e-11,6.720526357639756e-10
809,Jaskinia na Kadzielni Górna,G-1.31,50.861111111111114,20.616944444444446,809,Jaskinia na Kadzielni Górna,50.86111111128797,20.61694444404576,-1.7685408693068894e-10,3.986855290349922e-10,3.420123310244087e-05,1.7685408693068894e-10,3.986855290349922e-10
810,Jaskinia pod Fałdem,G-1.32,50.886944444444445,20.58833333333333,810,Jaskinia pod Fałdem,50.88694444448567,20.588333333961167,-4.122568952880101e-11,-6.278355613176245e-10,4.4279070479517676e-05,4.122568952880101e-11,6.278355613176245e-10
811,Wojtkowa Dziura,G-1.33,50.85916666666667,20.504166666666666,811,Wojtkowa Dziura,50.8591666665011,20.504166667252793,1.6556356285946094e-10,-5.861267027285066e-10,4.5071182104167536e-05,1.6556356285946094e-10,5.861267027285066e-10
812,Jaskinia Pajęcza,G-1.34,50.85888888888889,20.498611111111114,812,Jaskinia Pajęcza,50.85888891350667,20.49861108015862,-2.4617776261948165e-08,3.09524921249249e-08,0.003494736005490503,2.4617776261948165e-08,3.09524921249249e-08
813,Schronisko Krótkie w Jaworzni,G-1.35,50.85888888888889,20.498333333333335,813,Schronisko Krótkie w Jaworzni,50.85888888896229,20.498333332857225,-7.339906460401835e-11,4.761098182370915e-10,3.440034080281065e-05,7.339906460401835e-11,4.761098182370915e-10
814,Schronisko nad Chelosiową Jamą,G-1.36,50.85916666666667,20.499444444444446,814,Schronisko nad Chelosiową Jamą,50.85916666690929,20.499444443839053,-2.426219225526438e-10,6.053930690086418e-10,5.033327167030597e-05,2.426219225526438e-10,6.053930690086418e-10
815,Gazownia,G-1.37,50.859722222222224,20.498333333333335,815,Gazownia,50.85972222181131,20.498333333847516,4.1091396951742354e-10,-5.141806980191177e-10,5.822534437299931e-05,4.1091396951742354e-10,5.141806980191177e-10
816,Lisia Jama w Jaworzni,G-1.38,50.86055555555556,20.49638888888889,816,Lisia Jama w Jaworzni,50.86055555560113,20.496388888352545,-4.5574211071652826e-11,5.36346078661154e-10,3.79841205579081e-05,4.5574211071652826e-11,5.36346078661154e-10
817,Duża Dziura w Jaworzni,G-1.39,50.86055555555556,20.49638888888889,817,Duża Dziura w Jaworzni,50.860555519868605,20.496388868730588,3.568695206013217e-08,2.0158303470907413e-08,0.004212896211453722,3.568695206013217e-08,2.0158303470907413e-08
818,Ciasny Kominek,G-1.40,50.86,20.495833333333334,818,Ciasny Kominek,50.86000002967885,20.49583338121934,-2.967885137650228e-08,-4.7886008047726136e-08,0.004710355168486226,2.967885137650228e-08,4.7886008047726136e-08
819,Schronisko Pustułek,G-1.41,50.86055555555556,20.495,819,Schronisko Pustułek,50.860555599037745,20.495000032659952,-4.3482188516463793e-08,-3.2659951187952174e-08,0.005350880620238521,4.3482188516463793e-08,3.2659951187952174e-08
820,Chelosiowa Jama-Jaskinia Jaworznicka,G-1.42,50.85916666666667,20.49888888888889,820,Chelosiowa Jama-Jaskinia Jaworznicka,50.85916665139535,20.49888890291314,1.527131843204188e-08,-1.4024251981936686e-08,0.0019627719534460668,1.527131843204188e-08,1.4024251981936686e-08
821,Schronisko Zygmunta,G-2.1,50.819722222222225,20.497777777777777,821,Schronisko Zygmunta,50.81972222240552,20.49777777742454,-1.8329160411667544e-10,3.532356629420974e-10,3.2111218096970664e-05,1.8329160411667544e-10,3.532356629420974e-10
822,Jaskinia na Czerwonej Górze,G-2.2,50.81944444444445,20.497777777777777,822,Jaskinia na Czerwonej Górze,50.81944444451433,20.497777778361225,-6.988187806200585e-11,-5.834479566146911e-10,4.171704322515335e-05,6.988187806200585e-11,5.834479566146911e-10
823,Studnia Gwarków,G-2.3,50.81888888888889,20.497777777777777,823,Studnia Gwarków,50.81888888872988,20.497777777500794,1.5901235883575282e-10,2.7698376925400225e-10,2.6291714225726724e-05,1.5901235883575282e-10,2.7698376925400225e-10
824,Jaskinia Gwarecka,G-2.4,50.82333333333334,20.488055555555558,824,Jaskinia Gwarecka,50.82333333359515,20.488055555316144,-2.618136818455241e-10,2.3941382210068696e-10,3.3621048581858373e-05,2.618136818455241e-10,2.3941382210068696e-10
825,Schronisko Jacka,G-2.5,50.81703333334791,20.461872222688463,825,Schronisko Jacka,50.81703470710905,20.461871391405698,-1.373761143952379e-06,8.312827652900978e-07,0.16353815642298175,1.373761143952379e-06,8.312827652900978e-07
826,Jaskinia z Prześwitami,G-2.6,50.8175,20.461666666666666,826,Jaskinia z Prześwitami,50.81749999972743,20.46166666660816,2.7257129886493203e-10,5.850608886248665e-11,3.058551653370814e-05,2.7257129886493203e-10,5.850608886248665e-11
827,Schronisko pod Płytą,G-2.7,50.81777777777778,20.461388888888887,827,Schronisko pod Płytą,50.81777777813935,20.461388888515437,-3.615738819462422e-10,3.7345060377447226e-10,4.800775016204334e-05,3.615738819462422e-10,3.7345060377447226e-10
828,Schronisko na Szczelinie,G-2.8,50.81777777777778,20.461388888888887,828,Schronisko na Szczelinie,50.81777777813935,20.461388888515437,-3.615738819462422e-10,3.7345060377447226e-10,4.800775016204334e-05,3.615738819462422e-10,3.7345060377447226e-10
829,Schronisko Mechate,G-2.9,50.81805555555556,20.460555555555555,829,Schronisko Mechate,50.81805555523505,20.460555555495837,3.20511617246666e-10,5.971756422695762e-11,3.588525536949321e-05,3.20511617246666e-10,5.971756422695762e-11
830,Czyściec,G-2.10,50.82972222222222,20.435,830,Czyściec,50.82972222254343,20.435000000587525,-3.212079491277109e-10,-5.87526471917954e-10,5.4574664621002726e-05,3.212079491277109e-10,5.87526471917954e-10
831,Piekło pod Skibami,G-2.11,50.83111111111111,20.4325,831,Piekło pod Skibami,50.83111111098096,20.432500000484424,1.3015011290917755e-10,-4.844231682454847e-10,3.6972199141014745e-05,1.3015011290917755e-10,4.844231682454847e-10
832,Schronisko Łaszczyńskich,G-2.13,50.849444444444444,20.370833333333334,832,Schronisko Łaszczyńskich,50.849444444808846,20.370833333728996,-3.644018420345674e-10,-3.95662169694333e-10,4.912658793719066e-05,3.644018420345674e-10,3.95662169694333e-10
833,Jaskinia w Marzyszu,G-2.14,50.77777777777778,20.69361111111111,833,Jaskinia w Marzyszu,50.77777777767966,20.693611111284245,9.811884638111223e-11,-1.731343957089848e-10,1.634711896665993e-05,9.811884638111223e-11,1.731343957089848e-10
834,Schronisko Okopcone,G-2.15,50.81805555555556,20.553611111111113,834,Schronisko Okopcone,50.81805555532918,20.55361111074232,2.2637891561316792e-10,3.687929961415648e-10,3.612297904796892e-05,2.2637891561316792e-10,3.687929961415648e-10
835,Jaskinia Wodna,G-2.16,50.80888888888889,20.554166666666667,835,Jaskinia Wodna,50.80888888914482,20.55416666677086,-2.559303879934305e-10,-1.0419398677186109e-10,2.9384351013670026e-05,2.559303879934305e-10,1.0419398677186109e-10
836,Raj,G-2.17,50.82527777777778,20.499166666666667,836,Raj,50.82527778403453,20.499166671298525,-6.256755114009138e-09,-4.631857564163511e-09,0.0007680325913334171,6.256755114009138e-09,4.631857564163511e-09
837,Schron Polichniański,G-2.18,50.80888888888889,20.43305555555556,837,Schron Polichniański,50.808888888835504,20.433055555886533,5.338307573765633e-11,-3.3097435903073347e-10,2.400155960428809e-05,5.338307573765633e-11,3.3097435903073347e-10
838,Jaskinia Nowa na Miedziance,G-2.19,50.84777777777778,20.35888888888889,838,Jaskinia Nowa na Miedziance,50.84777777784393,20.358888888961136,-6.615152869926533e-11,-7.224443265840819e-11,8.935193615064638e-06,6.615152869926533e-11,7.224443265840819e-11
839,Jaskinia w Sztolni Zofia na Miedziance,G-2.20,50.84777777777778,20.358055555555556,839,Jaskinia w Sztolni Zofia na Miedziance,50.84777777752208,20.358055555043812,2.5569590889062965e-10,5.117435364354606e-10,4.581646227439866e-05,2.5569590889062965e-10,5.117435364354606e-10
840,Schronisko Zachodnie na Miedziance,G-2.21,50.847500000000004,20.358055555555556,840,Schronisko Zachodnie na Miedziance,50.8474999998006,20.3580555555446,1.9940671336371452e-10,1.0956568985420745e-11,2.2186496476323727e-05,1.9940671336371452e-10,1.0956568985420745e-11
841,Schronisko Zakryte,G-2.22,50.84722222222222,20.358055555555556,841,Schronisko Zakryte,50.84722222206619,20.35805555607722,1.560280793455604e-10,-5.216627130266716e-10,4.052613714120113e-05,1.560280793455604e-10,5.216627130266716e-10
842,Jaskinia Południowa na Miedziance,G-2.23,50.84666666666667,20.358333333333334,842,Jaskinia Południowa na Miedziance,50.84666670113789,20.35833336512764,-3.4471220544674e-08,-3.1794304078403e-08,0.00443563924960553,3.4471220544674e-08,3.1794304078403e-08
843,Schronisko Dwuotworowe na Miedziance,G-2.24,50.846944444444446,20.35888888888889,843,Schronisko Dwuotworowe na Miedziance,50.846944414483495,20.3588889259844,2.9960951053453755e-08,-3.709550711050724e-08,0.0042286882080278376,2.9960951053453755e-08,3.709550711050724e-08
844,Jaskinia Hematytowa,G-2.25,50.84583333333334,20.358611111111113,844,Jaskinia Hematytowa,50.84583333314058,20.358611110516488,1.9275603335699998e-10,5.946247938481974e-10,4.692868911419781e-05,1.9275603335699998e-10,5.946247938481974e-10
845,Schronisko z Mostem Skalnym,G-2.26,50.845555555555556,20.36138888888889,845,Schronisko z Mostem Skalnym,50.845555555493256,20.361388889538848,6.230038707144558e-11,-6.499583093955152e-10,4.6156402298140516e-05,6.230038707144558e-11,6.499583093955152e-10
846,Jaskinia Psia,G-2.27,50.844722222222224,20.36277777777778,846,Jaskinia Psia,50.844722222154985,20.362777778355564,6.723865908497828e-11,-5.777849310106831e-10,4.1250215054191116e-05,6.723865908497828e-11,5.777849310106831e-10
847,Jaskinia w Sztolni Teresa na Miedziance,G-2.28,50.844722222222224,20.36277777777778,847,Jaskinia w Sztolni Teresa na Miedziance,50.844722222154985,20.362777778355564,6.723865908497828e-11,-5.777849310106831e-10,4.1250215054191116e-05,6.723865908497828e-11,5.777849310106831e-10
848,Jaskinia Zbójecka w Łagowie,G-3.1,50.7825,21.092499999999998,848,Jaskinia Zbójecka w Łagowie,50.78249996715669,21.0924999485429,3.284331029362875e-08,5.1457096361673393e-08,0.005140503563622539,3.284331029362875e-08,5.1457096361673393e-08
849,Lisia Dziura w Łagowie,G-3.2,50.774166666666666,21.088055555555556,849,Lisia Dziura w Łagowie,50.7741666667678,21.08805555510648,-1.0113154758073506e-10,4.490772198550985e-10,3.352066953660351e-05,1.0113154758073506e-10,4.490772198550985e-10
850,Jaskinia Ponurego,G-4.1,50.998333333333335,20.869444444444444,850,Jaskinia Ponurego,50.99833336894838,20.86944445569741,-3.561504513527325e-08,-1.1252964782215713e-08,0.00403774813659705,3.561504513527325e-08,1.1252964782215713e-08
851,Jaskinia Dolomitowa,G-4.2,50.89222222222222,21.16361111111111,851,Jaskinia Dolomitowa,50.89222222177164,21.16361111116111,4.5058357045490993e-10,-5.000089231543825e-11,5.02251031254902e-05,4.5058357045490993e-10,5.000089231543825e-11
852,Jaskinia Lubańska,G-5.1,50.62777777777778,20.776944444444442,852,Jaskinia Lubańska,50.627777809407895,20.776944485801547,-3.1630115415737237e-08,-4.1357104407779843e-08,0.004569483662415505,3.1630115415737237e-08,4.1357104407779843e-08
853,Schronisko Szklarków,G-5.2,50.79277777777778,20.43861111111111,853,Schronisko Szklarków,50.79277777794152,20.43861111174098,-1.6373746802855749e-10,-6.298677135418984e-10,4.7870356283488234e-05,1.6373746802855749e-10,6.298677135418984e-10
854,Piekło pod Małogoszczem,G-5.3,50.83694444444445,20.309722222222224,854,Piekło pod Małogoszczem,50.83694444472823,20.309722222734187,-2.837836632352264e-10,-5.119638046835462e-10,4.783604242072316e-05,2.837836632352264e-10,5.119638046835462e-10
855,Schronisko Dolne pod Starym Piekłem,G-5.4,50.83638888888889,20.31388888888889,855,Schronisko Dolne pod Starym Piekłem,50.83638888909755,20.313888888243152,-2.0865797978331102e-10,6.457376855451002e-10,5.0937423515214635e-05,2.0865797978331102e-10,6.457376855451002e-10
856,Stare Piekło,G-5.5,50.83638888888889,20.31388888888889,856,Stare Piekło,50.83638888909755,20.313888888243152,-2.0865797978331102e-10,6.457376855451002e-10,5.0937423515214635e-05,2.0865797978331102e-10,6.457376855451002e-10
857,Schronisko Górne nad Starym Piekłem,G-5.6,50.83638888888889,20.31388888888889,857,Schronisko Górne nad Starym Piekłem,50.83638888909755,20.313888888243152,-2.0865797978331102e-10,6.457376855451002e-10,5.0937423515214635e-05,2.0865797978331102e-10,6.457376855451002e-10
858,Schronisko Ciasne,G-5.7,50.83638888888889,20.31388888888889,858,Schronisko Ciasne,50.83638888909755,20.313888888243152,-2.0865797978331102e-10,6.457376855451002e-10,5.0937423515214635e-05,2.0865797978331102e-10,6.457376855451002e-10
859,Schronisko Pochyłe,G-5.8,50.83583333333333,20.315555555555555,859,Schronisko Pochyłe,50.83583333350923,20.31555555608088,-1.758948542374128e-10,-5.253255608295149e-10,4.1754661330391654e-05,1.758948542374128e-10,5.253255608295149e-10
860,Jaskinia Chalcedonitowa I,G-5.9,50.82972222222222,20.314444444444444,860,Jaskinia Chalcedonitowa I,50.82972220609521,20.31444444026801,1.6127010837863054e-08,4.1764351976780745e-09,0.0018170741178458816,1.6127010837863054e-08,4.1764351976780745e-09
861,Jaskinia Chalcedonitowa II,G-5.10,50.82972222222222,20.272777777777776,861,Jaskinia Chalcedonitowa II,50.82972222219299,20.27277777786632,2.923172814917052e-11,-8.854428301674488e-11,7.017177557945891e-06,2.923172814917052e-11,8.854428301674488e-11
862,Duża Dziurawa Studnia,G-5.11,50.80888888888889,20.31638888888889,862,Duża Dziurawa Studnia,50.80888885780306,20.316388844422193,3.1085825469290285e-08,4.4466698767564594e-08,0.004659422104767396,3.1085825469290285e-08,4.4466698767564594e-08
863,Mała Dziurawa Studnia,G-5.12,50.80888888888889,20.31638888888889,863,Mała Dziurawa Studnia,50.808888888782455,20.316388889306698,1.0643219638950541e-10,-4.178062340542965e-10,3.165302750605695e-05,1.0643219638950541e-10,4.178062340542965e-10
870,Grota Świętej Rozalii,G-6.1,50.972500000000004,20.3875,870,Grota Świętej Rozalii,50.972499999895184,20.387500000018797,1.0481926437932998e-10,-1.879740807453345e-11,1.1729346039659191e-05,1.0481926437932998e-10,1.879740807453345e-11
871,Schronisko w Zlepieńcach,G-6.3,51.1075,20.136388888888888,871,Schronisko w Zlepieńcach,51.107500000355806,20.136388888402156,-3.5580427493187017e-10,4.86732432136705e-10,5.215336917371715e-05,3.5580427493187017e-10,4.86732432136705e-10
872,Czarcie Wrota,G-6.4,51.13111111111111,20.411666666666665,872,Czarcie Wrota,51.13111111070914,20.411666666741887,4.019682364742039e-10,-7.5221606721243e-11,4.500361376093458e-05,4.019682364742039e-10,7.5221606721243e-11
873,Schronisko Bardzo Niskie,G-6.5,51.13111111111111,20.411944444444444,873,Schronisko Bardzo Niskie,51.13111111136412,20.41194444469145,-2.530100573494565e-10,-2.4700597123228363e-10,3.299369008329361e-05,2.530100573494565e-10,2.4700597123228363e-10
874,Schronisko pod Wodospadem,G-7.1,50.882777777777775,21.361111111111114,874,Schronisko pod Wodospadem,50.88277777738791,21.36111111119992,3.8986769368420937e-10,-8.880718382897612e-11,4.3796521068678736e-05,3.8986769368420937e-10,8.880718382897612e-11
875,Okap Massalskiego,G-7.2,50.85472222222222,21.32611111111111,875,Okap Massalskiego,50.8547222218135,21.326111111254164,4.0871839246392483e-10,-1.4305356899058097e-10,4.6543817769435615e-05,4.0871839246392483e-10,1.4305356899058097e-10
876,Ślubny Schron,G-7.3,50.85472222222222,21.32638888888889,876,Ślubny Schron,50.85472222260621,21.32638888859672,-3.8399150525947334e-10,2.921680675171956e-10,4.736777087579244e-05,3.8399150525947334e-10,2.921680675171956e-10
877,Schronisko Lisa w Okopankach,G-7.4,50.85472222222222,21.32638888888889,877,Schronisko Lisa w Okopankach,50.8547222140787,21.326388819947457,8.14352318911915e-09,6.894143211866322e-08,0.0049234094658322965,8.14352318911915e-09,6.894143211866322e-08
878,Płaska Jama I w Krynkach,G-7.5,51.00277777777778,21.185555555555556,878,Płaska Jama I w Krynkach,51.00277774500037,21.185555515557773,3.2777407454887e-08,3.999778286356559e-08,0.0045953019416457895,3.2777407454887e-08,3.999778286356559e-08
879,Płaska Jama II w Krynkach,G-7.6,51.00277777777778,21.185555555555556,879,Płaska Jama II w Krynkach,51.00277774500037,21.185555515557773,3.2777407454887e-08,3.999778286356559e-08,0.0045953019416457895,3.2777407454887e-08,3.999778286356559e-08
880,Jaskinia Świętej Barbary,G-7.7,51.00277777777778,21.185833333333335,880,Jaskinia Świętej Barbary,51.00277776466452,21.185833271412484,1.3113258034991304e-08,6.192085066913933e-08,0.00457156531993835,1.3113258034991304e-08,6.192085066913933e-08
881,Grota Skrzatów,G-7.8,51.001666666666665,21.185277777777777,881,Grota Skrzatów,51.001666666234385,21.18527777743011,4.3227998958172975e-10,3.47668560607417e-10,5.387279034230692e-05,4.3227998958172975e-10,3.47668560607417e-10
882,Płaska Jama III w Krynkach,G-7.9,51.00055555555556,21.185833333333335,882,Płaska Jama III w Krynkach,51.00055552497232,21.185833312465217,3.058323727600509e-08,2.086811790036336e-08,0.003700969313201538,3.058323727600509e-08,2.086811790036336e-08
883,Schronisko pod Drutami,G-7.10,51.033055555555556,21.164166666666667,883,Schronisko pod Drutami,51.03305552699108,21.16416662083382,2.8564478782300284e-08,4.5832845074755824e-08,0.004512232166214446,2.8564478782300284e-08,4.5832845074755824e-08
884,Dziura na Przestrzał,G-7.11,51.032777777777774,21.16444444444444,884,Dziura na Przestrzał,51.03277777785822,21.164444444443102,-8.044764854275854e-11,1.3393730569077889e-12,8.946005135968835e-06,8.044764854275854e-11,1.3393730569077889e-12
885,Tunelik w Skałkach Adamowskich,G-7.12,51.0325,21.165277777777778,885,Tunelik w Skałkach Adamowskich,51.03249999992989,21.165277777825175,7.010925173744909e-11,-4.739675318887748e-11,8.471387105348953e-06,7.010925173744909e-11,4.739675318887748e-11
886,Schronisko Osobne,G-7.13,51.03111111111111,21.168055555555558,886,Schronisko Osobne,51.03111111154527,21.16805555584549,-4.34162927831494e-10,-2.899334106132301e-10,5.236163725175518e-05,4.34162927831494e-10,2.899334106132301e-10
887,Jaskinia nad Zalewem,G-7.14,51.00694444444444,21.16888888888889,887,Jaskinia nad Zalewem,51.006944461510095,21.168888848448695,-1.706565200265686e-08,4.044019519255926e-08,0.0034068806859052407,1.706565200265686e-08,4.044019519255926e-08
888,Schronisko Gotyckie,G-7.15,51.00805555555556,21.166944444444447,888,Schronisko Gotyckie,51.00805555544145,21.1669444442089,1.1410605793571449e-10,2.355449169044732e-10,2.07984018570471e-05,1.1410605793571449e-10,2.355449169044732e-10
889,Okap nad Jamą,G-7.16,51.00805555555556,21.166944444444447,889,Okap nad Jamą,51.00805554951942,21.166944423968783,6.036138699982985e-09,2.0475663831120983e-08,0.0015820187365900836,6.036138699982985e-09,2.0475663831120983e-08
890,Schronisko pod Osiedłem,G-7.17,51.089444444444446,20.85777777777778,890,Schronisko pod Osiedłem,51.08944446040042,20.857777827256857,-1.595597609593824e-08,-4.947907683572339e-08,0.0038845771948931426,1.595597609593824e-08,4.947907683572339e-08
891,Dziurawe Okno,G-7.18,51.09,20.85666666666667,891,Dziurawe Okno,51.090000000082824,20.8566666670211,-8.282086128019728e-11,-3.544293747381744e-10,2.6411384846277708e-05,8.282086128019728e-11,3.544293747381744e-10
892,Jama Agi,G-7.19,51.18416666666666,20.663055555555555,892,Jama Agi,51.18416665982137,20.66305562324501,6.8452905566118716e-09,-6.768945581825392e-08,0.004778901357191862,6.8452905566118716e-09,6.768945581825392e-08
893,Tomkowa Dziura,G-7.20,51.18416666666666,20.66333333333333,893,Tomkowa Dziura,51.18416666653246,20.66333333371337,1.3420020650301012e-10,-3.800408876486472e-10,3.040264195154084e-05,1.3420020650301012e-10,3.800408876486472e-10
894,Brama Piekło,G-7.21,51.0775,20.744444444444447,894,Brama Piekło,51.077499999746166,20.744444443879612,2.538342869229382e-10,5.648352896514552e-10,4.8515177695744375e-05,2.538342869229382e-10,5.648352896514552e-10
895,Duża Grota w Skałkach Dalejowskich,G-7.22,51.07888888888889,20.759166666666665,895,Duża Grota w Skałkach Dalejowskich,51.078888888834314,20.759166666548406,5.4576787533733295e-11,1.1825918022623227e-10,1.025091331300585e-05,5.4576787533733295e-11,1.1825918022623227e-10
896,Płaska Jama w Skałkach Dalejowskich,G-7.23,51.07888888888889,20.759166666666665,896,Płaska Jama w Skałkach Dalejowskich,51.07888885786052,20.759166632526927,3.102837098367672e-08,3.4139738147587195e-08,0.004194258261000131,3.102837098367672e-08,3.4139738147587195e-08
897,Wilcza Jama,G-7.24,51.07888888888889,20.758333333333333,897,Wilcza Jama,51.07888889332063,20.75833333141699,-4.431740308064036e-09,1.9163444164860266e-09,0.0005106475109483695,4.431740308064036e-09,1.9163444164860266e-09
898,Schronisko z Kością,G-7.25,51.07916666666667,20.759722222222223,898,Schronisko z Kością,51.079166666343674,20.75972222248525,3.2299851682182634e-10,-2.630287099236739e-10,4.034310995020109e-05,3.2299851682182634e-10,2.630287099236739e-10
899,Piwnica Zamkowa,G-7.26,51.07888888888889,20.759722222222223,899,Piwnica Zamkowa,51.0788888608889,20.759722167654864,2.7999988105875673e-08,5.456735863162976e-08,0.0049218673405983645,2.7999988105875673e-08,5.456735863162976e-08
900,Rajska Brama,G-7.27,51.07916666666667,20.759722222222223,900,Rajska Brama,51.079166666343674,20.75972222248525,3.2299851682182634e-10,-2.630287099236739e-10,4.034310995020109e-05,3.2299851682182634e-10,2.630287099236739e-10
901,Grzybowa Dziura,G-7.28,51.07916666666667,20.759722222222223,901,Grzybowa Dziura,51.079166666343674,20.75972222248525,3.2299851682182634e-10,-2.630287099236739e-10,4.034310995020109e-05,3.2299851682182634e-10,2.630287099236739e-10
902,Schron Traperów,G-7.29,50.86361111111111,21.295555555555556,902,Schron Traperów,50.86361111154007,21.295555555754746,-4.289546495783725e-10,-1.9918999782930769e-10,4.970405127564043e-05,4.289546495783725e-10,1.9918999782930769e-10
903,Schronisko Sympozjalne,G-7.30,51.184999999999995,20.66611111111111,903,Schronisko Sympozjalne,51.184999999663994,20.666111110782772,3.360014488862362e-10,3.283382454810635e-10,4.381302837381325e-05,3.360014488862362e-10,3.283382454810635e-10
904,Schronisko Wsiowe,G-8.1,50.90472222222222,21.546666666666667,904,Schronisko Wsiowe,50.90472222252621,21.546666666278774,-3.0399149864024366e-10,3.878923848787963e-10,4.338667456079472e-05,3.0399149864024366e-10,3.878923848787963e-10
905,Jaskinia Wysoka w Podgrodziu,G-8.2,50.905,21.546666666666667,905,Jaskinia Wysoka w Podgrodziu,50.90499999997858,21.546666666651195,2.142286348316702e-11,1.547206807117618e-11,2.6177108584444426e-06,2.142286348316702e-11,1.547206807117618e-11
906,Studnia Jaskini Wysokiej,G-8.3,50.905,21.546666666666667,906,Studnia Jaskini Wysokiej,50.90499999997858,21.546666666651195,2.142286348316702e-11,1.547206807117618e-11,2.6177108584444426e-06,2.142286348316702e-11,1.547206807117618e-11
907,Schronisko Trójkątne,G-8.4,50.906388888888884,21.54638888888889,907,Schronisko Trójkątne,50.90638888907196,21.546388888203293,-1.8307844129594741e-10,6.855991330212419e-10,5.220567810385958e-05,1.8307844129594741e-10,6.855991330212419e-10
908,Jaskinia Babia w Podgrodziu,G-8.5,50.906666666666666,21.546111111111113,908,Jaskinia Babia w Podgrodziu,50.90666666679629,21.546111111453367,-1.2962431128471508e-10,-3.4225422496092506e-10,2.7993862703329348e-05,1.2962431128471508e-10,3.4225422496092506e-10
909,Schronisko Dolne w Podgrodziu,G-8.6,50.906666666666666,21.546111111111113,909,Schronisko Dolne w Podgrodziu,50.90666666679629,21.546111111453367,-1.2962431128471508e-10,-3.4225422496092506e-10,2.7993862703329348e-05,1.2962431128471508e-10,3.4225422496092506e-10
910,Jaskinia za Berberysem,G-8.7,50.90694444444444,21.545555555555556,910,Jaskinia za Berberysem,50.906944444682345,21.545555555421807,-2.3790391878719674e-10,1.3374901186580246e-10,2.8067085933520588e-05,2.3790391878719674e-10,1.3374901186580246e-10
911,Jaskinia pod Gajem,G-8.8,50.91166666666666,21.546666666666667,911,Jaskinia pod Gajem,50.91166671129823,21.546666680898575,-4.463156955125669e-08,-1.4231908096462575e-08,0.005062117577414564,4.463156955125669e-08,1.4231908096462575e-08
912,Schronisko w Bałtowie,G-8.9,51.01305555555555,21.542222222222225,912,Schronisko w Bałtowie,51.01305555599282,21.542222222095592,-4.3726799958676565e-10,1.2663292636716506e-10,4.942256507466816e-05,4.3726799958676565e-10,1.2663292636716506e-10
913,Stroma Szczelina,G-8.10,51.013333333333335,21.541944444444447,913,Stroma Szczelina,51.0133333363592,21.54194448652673,-3.0258675565164594e-09,-4.20822843238966e-08,0.002963120039032341,3.0258675565164594e-09,4.20822843238966e-08
914,Szpara w Łomiku,G-8.11,51.01444444444444,21.54277777777778,914,Szpara w Łomiku,51.01444444451058,21.54277777732057,-6.613731784455013e-11,4.5720938146587287e-10,3.2818743341726114e-05,6.613731784455013e-11,4.5720938146587287e-10
915,Schronisko w Starej Kamionce,G-1Ex,50.85638888888889,20.198888888888888,915,Schronisko w Starej Kamionce,50.85638888884398,20.19888888842447,4.490630090003833e-11,4.644178375201591e-10,3.297934788987118e-05,4.490630090003833e-11,4.644178375201591e-10
916,Niespodzianka,G-2Ex,50.924166666666665,20.54527777777778,916,Niespodzianka,50.92416666641483,20.5452777777236,2.518376618354523e-10,5.417888360170764e-11,2.8259224287382552e-05,2.518376618354523e-10,5.417888360170764e-11
917,Jaskinia na Ołowiance,G-3Ex,50.84722222222222,20.37361111111111,917,Jaskinia na Ołowiance,50.847222191406075,20.373611108216775,3.0816146079359896e-08,2.8943354379862285e-09,0.0034326190065358943,3.0816146079359896e-08,2.8943354379862285e-09
918,Jaskinie na Rzepce,G-4Ex,50.7975,20.449722222222224,918,Jaskinie na Rzepce,50.797500000368274,20.44972222268525,-3.6827429994445993e-10,-4.630251737580693e-10,5.230576394671322e-05,3.6827429994445993e-10,4.630251737580693e-10
919,Duża Dziura II w Jaworzni,G-5Ex,50.86055555555556,20.49638888888889,919,Duża Dziura II w Jaworzni,50.86055555560113,20.496388888352545,-4.5574211071652826e-11,5.36346078661154e-10,3.79841205579081e-05,4.5574211071652826e-11,5.36346078661154e-10
920,Schronisko Dujące,G-6Ex,50.88,20.5325,920,Schronisko Dujące,50.8799999996073,20.532499999539947,3.9270275919989217e-10,4.6005155240891327e-10,5.430038218928529e-05,3.9270275919989217e-10,4.6005155240891327e-10
921,Jaskinia w Szczukowskich Górkach,G-7Ex,50.882222222222225,20.520555555555553,921,Jaskinia w Szczukowskich Górkach,50.88222222195743,20.52055555518623,2.6479796133571654e-10,3.6932235047970607e-10,3.922050945033507e-05,2.6479796133571654e-10,3.6932235047970607e-10
922,Jaskinia w Laskowej I,G-8Ex,50.882222222222225,20.544444444444448,922,Jaskinia w Laskowej I,50.882222252565235,20.544444474285612,-3.034300988247196e-08,-2.984116420634564e-08,0.003970710088707391,3.034300988247196e-08,2.984116420634564e-08
923,Jaskinia w Laskowej II,G-9Ex,50.924166666666665,20.5425,923,Jaskinia w Laskowej II,50.92416666677454,20.542500000362004,-1.0787459814309841e-10,-3.6200376030137704e-10,2.8066058126022982e-05,1.0787459814309841e-10,3.6200376030137704e-10
924,Jaskinia w Laskowej III,G-10Ex,50.92611111111111,20.53777777777778,924,Jaskinia w Laskowej III,50.92611112944401,20.537777839389097,-1.8332897866457643e-08,-6.161131693716015e-08,0.004775236866042104,1.8332897866457643e-08,6.161131693716015e-08
925,Jaskinia w Mogiłkach,G-11Ex,50.92388888888889,20.580555555555556,925,Jaskinia w Mogiłkach,50.9238888886055,20.580555555353975,2.8339286473055836e-10,2.0158097413514042e-10,3.4534567406234036e-05,2.8339286473055836e-10,2.0158097413514042e-10
926,Jaskinia w Jaźwicy,G-12Ex,50.79972222222222,20.50138888888889,926,Jaskinia w Jaźwicy,50.79972222205,20.50138888929248,1.7222134829353308e-10,-4.035882739117369e-10,3.4223287862618746e-05,1.7222134829353308e-10,4.035882739117369e-10
927,Jaskinia Okopcona,G-13Ex,50.81805555555556,20.553611111111113,927,Jaskinia Okopcona,50.81805555532918,20.55361111074232,2.2637891561316792e-10,3.687929961415648e-10,3.612297904796892e-05,2.2637891561316792e-10,3.687929961415648e-10
928,Jaskinia w Bliżynie,G-14Ex,51.11638888888889,20.752222222222223,928,Jaskinia w Bliżynie,51.11638888930716,20.75222222253756,-4.182680868325406e-10,-3.1533886613033246e-10,5.14548239836486e-05,4.182680868325406e-10,3.1533886613033246e-10
929,Jaskinia w Czarnowie,G-15Ex,50.875,20.605555555555558,929,Jaskinia w Czarnowie,50.87500000023612,20.60555555624378,-2.361204565204389e-10,-6.882210357161966e-10,5.496546435954651e-05,2.361204565204389e-10,6.882210357161966e-10
930,Jaskinia przy Cmentarzu,G-16Ex,50.858333333333334,20.622222222222224,930,Jaskinia przy Cmentarzu,50.85833333350462,20.62222222286614,-1.7128343188232975e-10,-6.439151434278756e-10,4.904603812081858e-05,1.7128343188232975e-10,6.439151434278756e-10
931,Jaskinie na Kadzielni,G-17Ex,50.861111111111114,20.616666666666667,931,Jaskinie na Kadzielni,50.86111111066754,20.616666666928683,4.4357761908031534e-10,-2.6201618652521574e-10,5.264047967573141e-05,4.4357761908031534e-10,2.6201618652521574e-10
932,Jaskinie na Wietrzni,G-18Ex,50.855555555555554,20.641666666666666,932,Jaskinie na Wietrzni,50.8555555554543,20.641666666154908,1.0125233984581428e-10,5.117577472901758e-10,3.764589420768553e-05,1.0125233984581428e-10,5.117577472901758e-10
933,Jaskinia Jubileuszowa,G-19Ex,50.85527777777778,20.64,933,Jaskinia Jubileuszowa,50.85527777768814,20.639999999650943,8.964207154349424e-11,3.49057671655828e-10,2.645196245870022e-05,8.964207154349424e-11,3.49057671655828e-10
934,Jaskinia w Rudkach,G-20Ex,50.89694444444444,21.100555555555555,934,Jaskinia w Rudkach,50.89694442238185,21.1005555797992,2.206259352988127e-08,-2.4243643537147364e-08,0.0029848518600679667,2.206259352988127e-08,2.4243643537147364e-08
935,Jaskinia w Sudole,G-21Ex,50.980555555555554,21.47222222222222,935,Jaskinia w Sudole,50.980555555183,21.47222222215751,3.7255176721373573e-10,6.471267965935112e-11,4.167276338970392e-05,3.7255176721373573e-10,6.471267965935112e-11
936,Jaskinia w Budach,G-22Ex,50.62305555555555,21.364444444444445,936,Jaskinia w Budach,50.62305555583023,21.36444444437187,-2.7467450536278193e-10,7.257483503053663e-11,3.096903093962485e-05,2.7467450536278193e-10,7.257483503053663e-11
937,Schronisko Galenowe,G-23Ex,50.84777777777778,20.3725,937,Schronisko Galenowe,50.84777777804815,20.372500000655833,-2.703686163840757e-10,-6.558344978202513e-10,5.4989832164498055e-05,2.703686163840757e-10,6.558344978202513e-10
939,Gruzowa Jama,G-24Ex,50.952222222222225,20.166944444444447,939,Gruzowa Jama,50.95222222254651,20.16694444435168,-3.242845991735521e-10,9.276490686715988e-11,3.6639446768602744e-05,3.242845991735521e-10,9.276490686715988e-11
950,Siwiańska Dziura,T.A-06.02,49.276602777904934,19.8266999997033,950,Siwiańska Dziura,49.27660276345954,19.826700048750133,1.4445390661421698e-08,-4.904683237327845e-08,0.0039038386544750425,1.4445390661421698e-08,4.904683237327845e-08
951,Schronisko w Małym Żlebku,T.A-12.01,49.27378611087799,19.912272222306992,951,Schronisko w Małym Żlebku,49.27378593588699,19.912273509919,1.749910012449618e-07,-1.2876120081273257e-06,0.09541947567342073,1.749910012449618e-07,1.2876120081273257e-06
952,Jasiowy Schron,T.A-12.02,49.27422222243415,19.914527777565848,952,Jasiowy Schron,49.27422224612829,19.91452780069347,-2.369414175973361e-08,-2.3127622483798405e-08,0.0031235709571858766,2.369414175973361e-08,2.3127622483798405e-08
953,Dziura pod Nosalem,T.A-17.01,49.27704722192552,19.98394166668256,953,Dziura pod Nosalem,49.27704612390827,19.983940813898148,1.098017250455996e-06,8.527844137518059e-07,0.13687261958910524,1.098017250455996e-06,8.527844137518059e-07
954,Schron z Prowokatorem,T.A-17.02,49.27777777777778,19.984722222222224,954,Schron z Prowokatorem,49.277777758892206,19.984722235801097,1.8885572217186564e-08,-1.3578873137021219e-08,0.0023195336605271637,1.8885572217186564e-08,1.3578873137021219e-08
955,Jaskinia Jaszczurowska Wyżnia,T.A-18.01,49.28189444435967,20.00261666668786,955,Jaskinia Jaszczurowska Wyżnia,49.28189354415459,20.00261620786937,9.002050802564554e-07,4.588184907561299e-07,0.10548598603556103,9.002050802564554e-07,4.588184907561299e-07
956,Nyża nad Jaworzyńskim Żlebem,T.A-24.01,49.28252777735392,20.074138888782926,956,Nyża nad Jaworzyńskim Żlebem,49.282527765819424,20.07413883333255,1.153449602497858e-08,5.545037495835459e-08,0.004221678181277632,1.153449602497858e-08,5.545037495835459e-08
957,Grota w Jaworzyńskim Żlebie,T.A-24.02,49.28208333333333,20.074138888782926,957,Grota w Jaworzyńskim Żlebie,49.28208334819718,20.07413894508817,-1.4863850594792893e-08,-5.630524313460228e-08,0.004405929718798533,1.4863850594792893e-08,5.630524313460228e-08
958,Jaskinia w Jaworzyńskim Żlebie,T.A-24.03,49.28261111153496,20.07486111111111,958,Jaskinia w Jaworzyńskim Żlebie,49.282611119896245,20.07486109866942,-8.361283221347549e-09,1.2441692121001324e-08,0.0012957031115419764,8.361283221347549e-09,1.2441692121001324e-08
959,Schron w Wielkich Koryciskach,T.B-04.01,49.26902777777778,19.79967500050863,959,Schron w Wielkich Koryciskach,49.26902911832026,19.799674847407186,-1.3405424823531575e-06,1.5310144263480652e-07,0.14947485899275087,1.3405424823531575e-06,1.5310144263480652e-07
960,Dziura w Kończystej Turni,T.B-09.01,49.26397777769301,19.87855277803209,960,Dziura w Kończystej Turni,49.26397710347857,19.878552428721427,6.742144407212436e-07,3.493106639496091e-07,0.07913821453949743,6.742144407212436e-07,3.493106639496091e-07
962,Dziura w Kończystej Niżnia,T.B-09.02,49.26411111089919,19.878480555216473,962,Dziura w Kończystej Niżnia,49.26411135898811,19.87848084212827,-2.480889236267103e-07,-2.8691179565498715e-07,0.03456061663759657,2.480889236267103e-07,2.8691179565498715e-07
969,Dziura Stanikowa Niżnia,T.B-09.03,49.26737499998676,19.881086111068726,969,Dziura Stanikowa Niżnia,49.267373649165215,19.88108636972745,1.3508215417346037e-06,-2.5865872288477476e-07,0.1513724601523503,1.3508215417346037e-06,2.5865872288477476e-07
970,Dziura Stanikowa Wyżnia,T.B-09.04,49.26721944444709,19.880869444741144,970,Dziura Stanikowa Wyżnia,49.26721864340453,19.88086993457009,8.010425602833493e-07,-4.898289454047244e-07,0.09590083399669609,8.010425602833493e-07,4.898289454047244e-07
971,Dziura Niżnia w Kończystej Turni,T.B-09.05,49.26361388842265,19.878216667175295,971,Dziura Niżnia w Kończystej Turni,49.2636142396069,19.87821738549227,-3.511842550096844e-07,-7.183169756785901e-07,0.06512886020091818,3.511842550096844e-07,7.183169756785901e-07
972,Mała Dziura w Kończystej Turni,T.B-09.06,49.264155555301244,19.878275000254312,972,Mała Dziura w Kończystej Turni,49.264154234831665,19.8782737164101,1.3204695790136611e-06,1.2838442131624106e-06,0.17388950169648051,1.3204695790136611e-06,1.2838442131624106e-06
975,Koleba za Kończystą,T.B-09.07,49.26433888859219,19.87763055589464,975,Koleba za Kończystą,49.26433890391591,19.87763050746546,-1.5323720958804188e-08,4.8429178889364266e-08,0.003905449416671953,1.5323720958804188e-08,4.8429178889364266e-08
976,Nyża w Kończystej,T.B-09.09,49.26371111128066,19.878969444698757,976,Nyża w Kończystej,49.26371144809168,19.87897076918817,-3.3681101996307916e-07,-1.3244894141450914e-06,0.10314872046050377,3.3681101996307916e-07,1.3244894141450914e-06
977,Schron pod Kończystą,T.B-09.08,49.263347222010296,19.87849722226461,977,Schron pod Kończystą,49.263347202723814,19.878498073589093,1.9286481744984485e-08,-8.513244829089217e-07,0.06181267842256264,1.9286481744984485e-08,8.513244829089217e-07
978,Okap w Kończystej Turni,T.B-09.10,49.263622222476535,19.879111110899185,978,Okap w Kończystej Turni,49.26362292664921,19.879110123897217,-7.041726775014467e-07,9.870019681557096e-07,0.10611518778075173,7.041726775014467e-07,9.870019681557096e-07
979,Dziura w Żlebku,T.B-09.11,49.26285555521647,19.88146111064487,979,Dziura w Żlebku,49.26285556469619,19.88146114309773,-9.479720119998092e-09,-3.2452859954901214e-08,0.002580081727495749,9.479720119998092e-09,3.2452859954901214e-08
980,Schronisko Dudowe Górne,T.D-06.04,49.24509444448683,19.833052778244017,980,Schronisko Dudowe Górne,49.24509320924967,19.833052769391916,1.2352371641100035e-06,8.852101274214874e-09,0.1373536093600474,1.2352371641100035e-06,8.852101274214874e-09
981,Dziura nad Potokiem,T.D-05.01,49.250191666666005,19.815269444783528,981,Dziura nad Potokiem,49.25019034573594,19.815268640351835,1.3209300675498525e-06,8.044316928135231e-07,0.1580605579401118,1.3209300675498525e-06,8.044316928135231e-07
982,Schronik w Kończystej Turni,T.B-09.12,49.263608333799574,19.877736110687255,982,Schronik w Kończystej Turni,49.26360952587313,19.877736499905517,-1.1920735545345451e-06,-3.892182611764383e-07,0.13552802015886722,1.1920735545345451e-06,3.892182611764383e-07
983,Jaskinia Rybia,T.D-04.05,49.24678055551317,19.812816666497124,983,Jaskinia Rybia,49.246780531749955,19.812816729436364,2.376321361907685e-08,-6.293923959788117e-08,0.005277745037768471,2.376321361907685e-08,6.293923959788117e-08
984,Dudowa Studnia,T.D-06.02,49.24512500021193,19.832625000211927,984,Dudowa Studnia,49.245124807870646,19.83262628035759,1.9234128245670945e-07,-1.280145664139809e-06,0.09535614955716068,1.9234128245670945e-07,1.280145664139809e-06
985,Jaskinia pod Baranami,T.D-06.01,49.24486944410536,19.834980555507872,985,Jaskinia pod Baranami,49.24486981425985,19.834980833236948,-3.701544883938368e-07,-2.777290752931094e-07,0.04583165351462631,3.701544883938368e-07,2.777290752931094e-07
986,Szemrzący Schron,T.D-06.03,49.244980555640325,19.839800000190735,986,Szemrzący Schron,49.244981286343915,19.839799085891944,-7.30703590079429e-07,9.142987913435263e-07,0.10491235337247162,7.30703590079429e-07,9.142987913435263e-07
987,Ciasna Norka,T.B-09.13,49.26303611119588,19.878916666242812,987,Ciasna Norka,49.26303655075833,19.87891725971584,-4.395624486619454e-07,-5.934730289425261e-07,0.06514267386174656,4.395624486619454e-07,5.934730289425261e-07
988,Jaskinia Niska,T.B-09.14,49.26410277790493,19.87772500038147,988,Jaskinia Niska,49.26410396511451,19.87772519670315,-1.1872095768694635e-06,-1.963216789135913e-07,0.13277809647332917,1.1872095768694635e-06,1.963216789135913e-07
989,Nyża pod Progiem w Kończystej,T.B-09.15,49.26372222264608,19.880208333333332,989,Nyża pod Progiem w Kończystej,49.26372345142174,19.88020701888239,-1.2287756590012577e-06,1.31445094098126e-06,0.16663218629550053,1.2287756590012577e-06,1.31445094098126e-06
990,Schronisko Wschodnie w Kończystej,T.B-09.16,49.26336388905843,19.880077777438693,990,Schronisko Wschodnie w Kończystej,49.26336253473108,19.88007768363427,1.3543273524874166e-06,9.380442378414955e-08,0.15074808496674333,1.3543273524874166e-06,9.380442378414955e-08
991,Jaskinia Barłogowa,T.B-10.01,49.26321944448683,19.883927777806917,991,Jaskinia Barłogowa,49.26321994360677,19.883928132842353,-4.99119941821391e-07,-3.5503543571735463e-07,0.061187662811187024,4.99119941821391e-07,3.5503543571735463e-07
992,Dziura za Smrekiem w Zawiesistej,T.B-10.02,49.26305833286709,19.88592499997881,992,Dziura za Smrekiem w Zawiesistej,49.26305933888752,19.885923794444448,-1.0060204331807654e-06,1.2055343603378788e-06,0.14200769288617537,1.0060204331807654e-06,1.2055343603378788e-06
993,Szczelina Przysłopczańska,T.B-10.03,49.262983333799575,19.88750555568271,993,Szczelina Przysłopczańska,49.26298466156051,19.887505633406676,-1.3277609340889285e-06,-7.772396415361982e-08,0.1477479671342875,1.3277609340889285e-06,7.772396415361982e-08
994,Tunel w Jatkach,T.B-12.01,49.263705555597944,19.92087499989404,994,Tunel w Jatkach,49.263705907628875,19.920876118633924,-3.520309306281888e-07,-1.1187398847312124e-06,0.09012426495709355,3.520309306281888e-07,1.1187398847312124e-06
1010,Okno w Jatkach I,T.B-12.02,49.263580555386014,19.921016666624283,1010,Okno w Jatkach I,49.26358133050909,19.921016160136013,-7.75123076834916e-07,5.064882699912232e-07,0.09369860345845797,7.75123076834916e-07,5.064882699912232e-07
1011,Okno w Jatkach II,T.B-12.03,49.263572222391765,19.921030555566155,1011,Okno w Jatkach II,49.26357249079117,19.92103015707024,-2.6839940403533546e-07,3.984959136005273e-07,0.04155545586266408,2.6839940403533546e-07,3.984959136005273e-07
1012,Jaskinia w Jatkach,T.B-12.04,49.263572222391765,19.921030555566155,1012,Jaskinia w Jatkach,49.26357249079117,19.92103015707024,-2.6839940403533546e-07,3.984959136005273e-07,0.04155545586266408,2.6839940403533546e-07,3.984959136005273e-07
1013,Kominek w Jatkach,T.B-12.05,49.26343611081441,19.920950000021193,1013,Kominek w Jatkach,49.26343689383369,19.920950639031748,-7.830192814139991e-07,-6.390105546927316e-07,0.09864524889535126,7.830192814139991e-07,6.390105546927316e-07
1014,Dziurawa Nisza w Jatkach,T.B-12.07,49.26500277731154,19.921877777841356,1014,Dziurawa Nisza w Jatkach,49.2650028129553,19.921877757178436,-3.564376527265267e-08,2.06629202637032e-08,0.004237520960525793,3.564376527265267e-08,2.06629202637032e-08
1015,Komora w Jatkach,T.B-12.08,49.24851944393582,19.922372222476536,1015,Komora w Jatkach,49.24851941120554,19.92237225299288,3.273027715522403e-08,-3.051634323014696e-08,0.004260514605776808,3.273027715522403e-08,3.051634323014696e-08
1016,Nyża przy Jatkach,T.B-12.09,49.26556944423252,19.922963888910083,1016,Nyża przy Jatkach,49.26556874789194,19.922965166284907,6.963405780879839e-07,-1.2773748245820116e-06,0.1207735404488037,6.963405780879839e-07,1.2773748245820116e-06
1017,Schron za Irgą,T.B-13.01,49.26861111111111,19.929722222222225,1017,Schron za Irgą,49.26861107629014,19.929722216059485,3.482097099549719e-08,6.1627396519270405e-09,0.003897648447274543,3.482097099549719e-08,6.1627396519270405e-09
1018,Dziura,T.B-14.01,49.2719055557251,19.94266666624281,1018,Dziura,49.27190556680772,19.942666645101397,-1.1082619266744587e-08,2.1141413952818766e-08,0.0019675622413947123,1.1082619266744587e-08,2.1141413952818766e-08
1019,Dziura Wyżnia,T.B-14.02,49.27155555566152,19.94338611072964,1019,Dziura Wyżnia,49.27155551760461,19.943386176958892,3.8056910511841124e-08,-6.622925141641645e-08,0.0064028234667020695,3.8056910511841124e-08,6.622925141641645e-08
1020,Lisia Jama,T.B-14.03,49.27172222243415,19.943055555555556,1020,Lisia Jama,49.27172225113942,19.943055613212408,-2.8705272825391148e-08,-5.7656851737419856e-08,0.005261788466319376,2.8705272825391148e-08,5.7656851737419856e-08
1030,Nisza w Jatkach,T.B-12.06,49.26483055538601,19.921641666624282,1030,Nisza w Jatkach,49.26483058411908,19.921641634440125,-2.8733069257214083e-08,3.2184157561232496e-08,0.003957480412377849,2.8733069257214083e-08,3.2184157561232496e-08
1031,Jaskinia w Cycku,T.B-17.01,49.26611111111111,19.977777777777778,1031,Jaskinia w Cycku,49.26611115334371,19.977777813900182,-4.223259963964665e-08,-3.612240462302907e-08,0.005377985282905395,4.223259963964665e-08,3.612240462302907e-08
1032,Nyża nad Olczyską II,T.B-18.01,49.26555555555556,20.002222222222223,1032,Nyża nad Olczyską II,49.265555528286065,20.002222263816947,2.726949333009543e-08,-4.1594724109472736e-08,0.004278270713517428,2.726949333009543e-08,4.1594724109472736e-08
1033,Grota Filipczańska nad Mostkiem,T.B-24.01,49.273250000211924,20.080055555767483,1033,Grota Filipczańska nad Mostkiem,49.273249987338886,20.080055516701975,1.287303774688553e-08,3.906550816168419e-08,0.003175141059068695,1.287303774688553e-08,3.906550816168419e-08
1034,Filipczańska Szczelina,T.B-24.02,49.273250000211924,20.080055555767483,1034,Filipczańska Szczelina,49.273249987338886,20.080055516701975,1.287303774688553e-08,3.906550816168419e-08,0.003175141059068695,1.287303774688553e-08,3.906550816168419e-08
1035,Grota Filipczańska Wyżnia,T.B-24.03,49.27386111100515,20.077583333121407,1035,Grota Filipczańska Wyżnia,49.273861099334674,20.077583332438543,1.167047258832099e-08,6.828635434885655e-10,0.001298641961389405,1.167047258832099e-08,6.828635434885655e-10
1036,Jaskinia Filipczańska Niżnia,T.B-24.04,49.27391666677263,20.077138889100816,1036,Jaskinia Filipczańska Niżnia,49.27391671350445,20.077138842729553,-4.6731820191325824e-08,4.637126238549172e-08,0.006190278076162308,4.6731820191325824e-08,4.637126238549172e-08
1037,Schronisko w Międzyścianach I,T.C-05.01,49.253105555640325,19.819841666751437,1037,Schronisko w Międzyścianach I,49.2531055665078,19.819841707771637,-1.0867474031783786e-08,-4.102020056961919e-08,0.003213098776634173,1.0867474031783786e-08,4.102020056961919e-08
1038,Schronisko w Międzyścianach II,T.C-05.02,49.252938888867696,19.820216666592493,1038,Schronisko w Międzyścianach II,49.25293851136859,19.820216543353684,3.774991057525767e-07,1.232388093796999e-07,0.042918397886429024,3.774991057525767e-07,1.232388093796999e-07
1039,Schronisko w Międzyścianach III,T.C-05.03,49.25289444446564,19.820411110983954,1039,Schronisko w Międzyścianach III,49.252895568187576,19.820409787545653,-1.123721936835409e-06,1.323438301170654e-06,0.15760540984938678,1.123721936835409e-06,1.323438301170654e-06
1040,Schron w Skale Kmietowicza I,T.C-05.04,49.257205555703905,19.815402777989707,1040,Schron w Skale Kmietowicza I,49.2572053614919,19.81540274239001,1.94212006476846e-07,3.559969741218083e-08,0.021749384148059898,1.94212006476846e-07,3.559969741218083e-08
1041,Schron w Skale Kmietowicza II,T.C-05.05,49.23512499994702,19.82026944451862,1041,Schron w Skale Kmietowicza II,49.23512618050682,19.82027030077044,-1.1805597992520234e-06,-8.562518196697511e-07,0.14524921216316897,1.1805597992520234e-06,8.562518196697511e-07
1042,Wojtkowa Szpara,T.C-05.06,49.25762500021193,19.815227777693007,1042,Wojtkowa Szpara,49.25762617507279,19.815227798526823,-1.1748608557127227e-06,-2.083381644979454e-08,0.13064731596049106,1.1748608557127227e-06,2.083381644979454e-08
1043,Schron pod Zbójnicką Turnią,T.E-08.66,49.237869444423254,19.867530555526415,1043,Schron pod Zbójnicką Turnią,49.237869424904815,19.867530554663013,1.951843842107337e-08,8.634017945041705e-10,0.0021712566114789416,1.951843842107337e-08,8.634017945041705e-10
1044,Jaskinia w Małym Krakowie,T.C-08.01,49.25440833330154,19.86791111111641,1044,Jaskinia w Małym Krakowie,49.25440837171996,19.867911107245945,-3.841842044494115e-08,3.870464837518739e-09,0.0042811594342043935,3.841842044494115e-08,3.870464837518739e-09
1045,Tatowa Szczelina,T.C-09.01,49.25484722243415,19.871013888782926,1045,Tatowa Szczelina,49.254847251160605,19.87101383690537,-2.8726454104344157e-08,5.1877556472845754e-08,0.0049375129971732535,2.8726454104344157e-08,5.1877556472845754e-08
1046,Dziura nad Doliną Strążyską,T.C-13.02,49.25468055566152,19.93463055557675,1046,Dziura nad Doliną Strążyską,49.2546799568383,19.93463127998826,5.988232203435473e-07,-7.244115103333115e-07,0.08484032618733349,5.988232203435473e-07,7.244115103333115e-07
1047,Nyża Giewontowa,T.C-13.03,49.25458888901605,19.935500000052983,1047,Nyża Giewontowa,49.25458907432443,19.93549861821707,-1.8530838019614748e-07,1.3818359114736722e-06,0.10238416386067674,1.8530838019614748e-07,1.3818359114736722e-06
1050,Kominek Giewontowy,T.C-13.04,49.2545916668574,19.93567777766122,1050,Kominek Giewontowy,49.25459068728982,19.93567721585787,9.795675808277338e-07,5.618033505072617e-07,0.11630442417774962,9.795675808277338e-07,5.618033505072617e-07
1051,Mała Dziura Giewontowa,T.C-13.05,49.25450555536482,19.932658333248565,1051,Mała Dziura Giewontowa,49.25450559155843,19.932658391314227,-3.619360455786591e-08,-5.806566250043943e-08,0.005827236552103832,3.619360455786591e-08,5.806566250043943e-08
1052,Dziura za Głazami,T.C-15.01,49.25493055555555,19.962277777989705,1052,Dziura za Głazami,49.25493167374353,19.962278406776296,-1.1181879742139245e-06,-6.287865907950163e-07,0.13244697904229477,1.1181879742139245e-06,6.287865907950163e-07
1053,Płaska Nyża,T.C-15.02,49.255122222370574,19.96238333384196,1053,Płaska Nyża,49.2551214620136,19.962384234224174,7.603569756042816e-07,-9.003822150077667e-07,0.10685719384799201,7.603569756042816e-07,9.003822150077667e-07
1054,Szczelina w Suchym Żlebie,T.C-15.03,49.254733333587644,19.962283333672417,1054,Szczelina w Suchym Żlebie,49.25473386103297,19.96228253415022,-5.27445322973108e-07,7.995221977807887e-07,0.08250346426829556,5.27445322973108e-07,7.995221977807887e-07
1055,Nyża z Mostem,T.C-15.04,49.25452777756585,19.962327778074474,1055,Nyża z Mostem,49.25452742564414,19.96232800832344,3.5192170599884776e-07,-2.3024896478318624e-07,0.04255062529741903,3.5192170599884776e-07,2.3024896478318624e-07
1056,Kalacki Tunelik,T.C-15.05,49.25472222222222,19.964136110941567,1056,Kalacki Tunelik,49.25472352663789,19.96413715690321,-1.304415668812453e-06,-1.0459616426317098e-06,0.16370878785166562,1.304415668812453e-06,1.0459616426317098e-06
1057,Mokra Koleba,T.C-15.06,49.254616666899786,19.96431666692098,1057,Mokra Koleba,49.25461727883238,19.964318053742808,-6.11932591709774e-07,-1.3868218289303513e-06,0.12149319499145307,6.11932591709774e-07,1.3868218289303513e-06
1058,Frapująca Nyża,T.C-15.07,49.255069444444445,19.964611110687255,1058,Frapująca Nyża,49.25506950963018,19.9646107326755,-6.518573769653813e-08,3.780117552310003e-07,0.028375991854079265,6.518573769653813e-08,3.780117552310003e-07
1059,Szczelina pod Frapującą Nyżą,T.C-15.08,49.255069444444445,19.964611110687255,1059,Szczelina pod Frapującą Nyżą,49.25506950963018,19.9646107326755,-6.518573769653813e-08,3.780117552310003e-07,0.028375991854079265,6.518573769653813e-08,3.780117552310003e-07
1060,Kalacka Nyża I,T.C-15.09,49.256013888782924,19.964591666327582,1060,Kalacka Nyża I,49.2560133951384,19.96459104873227,4.936445208159057e-07,6.175953117804056e-07,0.07086600889510146,4.936445208159057e-07,6.175953117804056e-07
1061,Kalacka Szczelina,T.C-15.10,49.25452222241296,19.963797221713595,1061,Kalacka Szczelina,49.25452263983403,19.963797966684353,-4.1742107015352303e-07,-7.449707588591536e-07,0.07125781843312527,4.1742107015352303e-07,7.449707588591536e-07
1062,Kalacka Nyża II,T.C-15.11,49.25560833348168,19.964530555937024,1062,Kalacka Nyża II,49.255608263848146,19.96453077813249,6.963353627043034e-08,-2.221954673586879e-07,0.017888470388382764,6.963353627043034e-08,2.221954673586879e-07
1063,Jaskinia Kalacka,T.C-16.01,49.25629722224342,19.9668472222156,1063,Jaskinia Kalacka,49.256297230997326,19.966847239277477,-8.753907820846507e-09,-1.7061879020729975e-08,0.0015750435921606965,8.753907820846507e-09,1.7061879020729975e-08
1064,Korytarzyk przy Kalackiej,T.C-16.02,49.25631388876173,19.966805555555553,1064,Korytarzyk przy Kalackiej,49.25631386689261,19.96680549840654,2.186911984836115e-08,5.71490126333174e-08,0.004807858049773313,2.186911984836115e-08,5.71490126333174e-08
1065,Korytarzyk nad Kalacką,T.C-16.03,49.25636111100515,19.966566666497123,1065,Korytarzyk nad Kalacką,49.256361125778355,19.966566673513725,-1.4773206657991977e-08,-7.016602410203632e-09,0.0017198229611962287,1.4773206657991977e-08,7.016602410203632e-09
1066,Nyża nad Olczyską I,T.C-18.01,49.263888888888886,20.004444444444445,1066,Nyża nad Olczyską I,49.263888856139985,20.004444463609214,3.27489004803283e-08,-1.916476932706246e-08,0.0038980161575477472,3.27489004803283e-08,1.916476932706246e-08
1067,Zbójecka Dziura,T.D-04.01,49.24776944478353,19.8117305554284,1067,Zbójecka Dziura,49.24776940791854,19.811730513138254,3.686498928345827e-08,4.229014649581586e-08,0.005121186326299465,3.686498928345827e-08,4.229014649581586e-08
1068,Szczelina Chochołowska,T.D-04.02,49.2459444448683,19.81198333316379,1068,Szczelina Chochołowska,49.245944443871906,19.81198330974017,9.963940783563885e-10,2.3423620376661347e-08,0.001703915653811798,9.963940783563885e-10,2.3423620376661347e-08
1069,Kamienne Mleko,T.D-04.03,49.24530000050863,19.811049999660916,1069,Kamienne Mleko,49.245299990348265,19.81104997869488,1.0160363217437407e-08,2.0966037794778458e-08,0.001895439465733996,1.0160363217437407e-08,2.0966037794778458e-08
1070,Jaskinia Mała,T.D-04.04,49.24561944431729,19.811586110856798,1070,Jaskinia Mała,49.245620597226534,19.811587258528164,-1.1529092418527398e-06,-1.1476713659419602e-06,0.15288920448789733,1.1529092418527398e-06,1.1476713659419602e-06
1071,Jaskinia pod Szczytem,T.D-17.04,49.25164166662428,19.983513888882268,1071,Jaskinia pod Szczytem,49.251641649726025,19.98351384504566,1.689825523953914e-08,4.383660723306093e-08,0.0036951225869609468,1.689825523953914e-08,4.383660723306093e-08
1072,Jaskinia Korytarzowa,T.D-17.03,49.252416666613684,19.982861110899183,1072,Jaskinia Korytarzowa,49.25241663446862,19.98286105269012,3.2145067052624654e-08,5.8209064235370533e-08,0.005534001233004209,3.2145067052624654e-08,5.8209064235370533e-08
1073,Piwnica,T.D-04.06,49.2455111111535,19.811425000296698,1073,Piwnica,49.24551106131021,19.81142493416731,4.98432868312193e-08,6.612938818761904e-08,0.0073321632808873455,4.98432868312193e-08,6.612938818761904e-08
1074,Schron przy Szczelinie,T.D-04.07,49.24482222239177,19.81086388905843,1074,Schron przy Szczelinie,49.24482187397123,19.810864715895345,3.484205350900993e-07,-8.268369136033016e-07,0.07143890938951374,3.484205350900993e-07,8.268369136033016e-07
1075,Schronisko Dudowe,T.D-06.05,49.24487777815925,19.833044444190133,1075,Schronisko Dudowe,49.2448773173782,19.833044189521267,4.6078105242486345e-07,2.5466886555136625e-07,0.054469608848664176,4.6078105242486345e-07,2.5466886555136625e-07
1076,Dudowy Schron,T.D-06.06,49.24493611123827,19.832700000339084,1076,Dudowy Schron,49.24493676103111,19.83269939625119,-6.497928453086388e-07,6.040878943736061e-07,0.08451942833522368,6.497928453086388e-07,6.040878943736061e-07
1077,Szczelina Zawaliskowa nad Kufą,T.D-06.07,49.2459611108568,19.83878611087799,1077,Szczelina Zawaliskowa nad Kufą,49.24596025082898,19.838787084185817,8.600278178505505e-07,-9.733078272233797e-07,0.11889883573436615,8.600278178505505e-07,9.733078272233797e-07
1078,Jaskinia Lodowa nad Kufą,T.D-06.08,49.244388888676966,19.838961111174687,1078,Jaskinia Lodowa nad Kufą,49.24438837122196,19.838961389128453,5.174550068431927e-07,-2.7795376666972516e-07,0.06097362055977983,5.174550068431927e-07,2.7795376666972516e-07
1079,Szczelina przy Lodowej nad Kufą,T.D-06.09,49.244166666666665,19.83917222234938,1079,Szczelina przy Lodowej nad Kufą,49.244165754644584,19.839172566713177,9.120220809677448e-07,-3.4436379792168736e-07,0.1044478124719115,9.120220809677448e-07,3.4436379792168736e-07
1080,Schron w Opalonem I,T.D-06.10,49.24915277798971,19.833588888893523,1080,Schron w Opalonem I,49.24915394927524,19.833588972423435,-1.1712855325640703e-06,-8.352991187621228e-08,0.13038205547979495,1.1712855325640703e-06,8.352991187621228e-08
1081,Schron w Opalonem II,T.D-06.11,49.24898888905843,19.8369166665607,1081,Schron w Opalonem II,49.248989609226264,19.83691673197256,-7.201678329238348e-07,-6.541186081676642e-08,0.08021963975893975,7.201678329238348e-07,6.541186081676642e-08
1082,Schron pod Kufą Zachodni,T.D-06.12,49.24510000016954,19.838258333206177,1082,Schron pod Kufą Zachodni,49.24510072639415,19.838257955321893,-7.262246057848643e-07,3.778842838642049e-07,0.08528434760221996,7.262246057848643e-07,3.778842838642049e-07
1083,Szczelina przed Kufą,T.D-06.13,49.24609166675144,19.83850833310021,1083,Szczelina przed Kufą,49.24609228921063,19.838509353705305,-6.224591899695042e-07,-1.0206050937711098e-06,0.10138644491178879,6.224591899695042e-07,1.0206050937711098e-06
1084,Schron Wschodni pod Kufą,T.D-06.14,49.245969444910685,19.839583333333334,1084,Schron Wschodni pod Kufą,49.245968232103465,19.839583550372083,1.2128072199857343e-06,-2.170387496391868e-07,0.1357751616720422,1.2128072199857343e-06,2.170387496391868e-07
